cruise_velocity_m_s,trial,completed_duration_s,waypoints_completed,laps_completed,success,cross_track_rmse_m,altitude_rmse_m,airspeed_rmse_m_s,mean_airspeed_m_s,minimum_altitude_m,mean_throttle,mass_kg,cla,cd0,thrust_max_n,initial_speed_m_s,initial_heading_rad,random_seed,requested_duration_s,screen_parameter,component,nominal_value,scale,applied_value,failure_mode,time_to_failure_s,maximum_abs_roll_deg,maximum_abs_pitch_deg,maximum_abs_angle_of_attack_deg,stall_fraction,aileron_saturation_fraction,elevator_saturation_fraction,throttle_saturation_fraction
4.0,0,2.2800000000000002,1,0.25,0,2.0938916873219133,1.4571434986834437,2.7290172979430762,6.195346309547134,-0.03148230312554799,0.43384474724581623,0.065,4.7,0.06,0.3,4.0,1.4288992721907328,7,60.0,airframe.max_elevator,airframe,0.4188790204786391,0.05,0.020943951023931956,ground_impact,2.2800000000000002,41.26042715799853,20.57766171521971,3.08221981498444,0.0,0.7441860465116279,0.0,0.0
4.0,1,2.32,1,0.25,0,2.3358502231978733,1.485283047704536,2.973508625007589,6.414771020267471,-0.013971216331422433,0.43568872547663584,0.06577673839752203,4.570952355386659,0.0551469765634464,0.33000624819513635,3.9705706040793256,1.4182988268893335,7,60.0,airframe.max_elevator,airframe,0.4188790204786391,0.05,0.020943951023931956,ground_impact,2.32,42.36041825969826,20.111332870393824,2.9132708318242817,0.0,0.7613636363636364,0.0,0.0
4.0,2,2.34,1,0.25,0,2.2850790339672007,1.4671573028596383,2.7648039360058436,6.286505179158888,-0.002434993266321392,0.4338063498720182,0.06428724157605824,4.1638551873761624,0.06636539174031647,0.3114338956812706,4.134814580815061,1.44120695245206,7,60.0,airframe.max_elevator,airframe,0.4188790204786391,0.05,0.020943951023931956,ground_impact,2.34,41.56002086893244,19.940324159578243,2.7407391237066734,0.0,0.7727272727272727,0.0,0.0
4.0,3,2.48,1,0.25,0,2.58696384508639,1.4780917328971461,2.8423736314699717,6.351562800243345,-0.024374159545685697,0.4348691488926606,0.06268446121923109,4.336350357380637,0.05515479194800862,0.2820106664684216,4.17178330111812,1.4246835883790174,7,60.0,airframe.max_elevator,airframe,0.4188790204786391,0.05,0.020943951023931956,ground_impact,2.48,42.185422601525836,18.98210379831465,2.555392020660979,0.0,0.7978723404255319,0.0,0.0
4.0,4,2.22,1,0.25,0,1.9756482037739191,1.5118619410270167,2.7748515150100013,6.202604376655144,-0.020130994364892706,0.44356245777213593,0.06381785595855352,4.180630719342732,0.059804869770326875,0.30111774343157194,3.8014708311273617,1.422012753510219,7,60.0,airframe.max_elevator,airframe,0.4188790204786391,0.05,0.020943951023931956,ground_impact,2.22,41.215789323831864,21.825066468443747,3.4181538228225015,0.0,0.7261904761904762,0.0,0.0
4.0,5,2.36,1,0.25,0,2.2462983736395707,1.4826702552736981,2.7413100647357322,6.191747678062049,-0.02497740878106048,0.44052518527150925,0.0624217189570092,4.63370430103694,0.06530633920429904,0.3086503437550528,3.8808036451019428,1.390010992718187,7,60.0,airframe.max_elevator,airframe,0.4188790204786391,0.05,0.020943951023931956,ground_impact,2.36,41.67143061625031,20.319669000505783,2.950657203654168,0.0,0.7640449438202247,0.0,0.0
4.0,6,2.32,1,0.25,0,2.2652007832731114,1.4763311861744821,2.8278431892036093,6.317882909208979,-0.0249381965440248,0.4340921535201172,0.06515637336675334,4.342580092232875,0.056498397403540186,0.2971682681197388,4.097035513386014,1.428497097086861,7,60.0,airframe.max_elevator,airframe,0.4188790204786391,0.05,0.020943951023931956,ground_impact,2.32,41.75814637364106,20.183919560924515,2.9309666863380164,0.0,0.7613636363636364,0.0,0.0
4.0,7,2.02,1,0.25,0,1.4743448445513243,1.4653978063178454,2.6401039513122546,6.018534355672009,-0.03386267163073297,0.43795788475748426,0.06848455963844179,4.77649654918772,0.05932978830249504,0.3102436540079281,3.701137032373826,1.4134153665088793,7,60.0,airframe.max_elevator,airframe,0.4188790204786391,0.05,0.020943951023931956,ground_impact,2.02,39.55945447989787,23.556932182551115,4.207078834118314,0.0,0.6578947368421053,0.0,0.0
4.0,8,2.2800000000000002,1,0.25,0,2.048827532784104,1.457091291194084,2.708330120641142,6.155898458580902,-0.03825401801558917,0.4348642835112173,0.06372026305176655,4.744203806428032,0.06066278485949688,0.2990022401977588,3.930524520257145,1.4696048105776907,7,60.0,airframe.max_elevator,airframe,0.4188790204786391,0.05,0.020943951023931956,ground_impact,2.2800000000000002,41.217408989736455,20.64030160565363,3.1127810187333003,0.0,0.7441860465116279,0.0,0.0
4.0,9,2.36,1,0.25,0,2.2905535118002436,1.4594104924213427,2.801480316415245,6.2647645525419,-0.008854091679507417,0.4349345188863262,0.06338676526046816,4.647285473614353,0.060382690645530375,0.31000871341251496,3.9854069611494864,1.4516963615488432,7,60.0,airframe.max_elevator,airframe,0.4188790204786391,0.05,0.020943951023931956,ground_impact,2.36,41.84690813447641,19.799222655175853,2.8175703402063355,0.0,0.7640449438202247,0.0,0.0
4.0,10,2.4,1,0.25,0,2.6244066111833835,1.5209259640584594,3.099698205625125,6.596955416647494,-0.019819727033628942,0.435791852171727,0.06627358933048151,3.9902737615486155,0.052649665041493834,0.32157783887484226,4.188552246593023,1.4280565011100315,7,60.0,airframe.max_elevator,airframe,0.4188790204786391,0.05,0.020943951023931956,ground_impact,2.4,42.854586005679025,19.495028808016492,2.5598423972233864,0.0,0.8021978021978022,0.0,0.0
4.0,11,2.22,1,0.25,0,1.9514298164900916,1.4276984140850215,2.6517623010510514,6.151915686029277,-0.0033885391589514938,0.42881293425828065,0.06592790622121616,4.548088603371248,0.06045684138226205,0.2898650662349152,4.103410585085613,1.4522301712184607,7,60.0,airframe.max_elevator,airframe,0.4188790204786391,0.05,0.020943951023931956,ground_impact,2.22,40.68978415723454,20.865583364612284,3.1872317451788374,0.0,0.7380952380952381,0.0,0.0
4.0,12,2.2,1,0.25,0,1.852323834901068,1.4410784228378237,2.5910722629765854,6.062717774305605,-0.013755964382144686,0.43365626186724876,0.06527407704739453,4.6863227333968975,0.06815294053044922,0.3030470791558441,3.95091798696667,1.4170355867813895,7,60.0,airframe.max_elevator,airframe,0.4188790204786391,0.05,0.020943951023931956,ground_impact,2.2,40.342116928748304,21.398773824148343,3.382003307346296,0.0,0.7228915662650602,0.0,0.0
4.0,13,2.4,1,0.25,0,2.3868599252661227,1.4731500878102834,2.8878396840352036,6.318749089487731,-0.020163320162682394,0.4366629491895473,0.06258078308375867,4.731953134052932,0.0507171319312291,0.29305038635192376,3.9447136158850062,1.4656254103938693,7,60.0,airframe.max_elevator,airframe,0.4188790204786391,0.05,0.020943951023931956,ground_impact,2.4,42.29435841745675,19.606201389855546,2.813707729650379,0.0,0.7692307692307693,0.0,0.0
4.0,14,2.22,1,0.25,0,1.9586556677313032,1.478263756885485,2.6880871618257456,6.16539500922312,-0.02071358710896473,0.4372720933459653,0.06492394526159549,4.2685017141274795,0.06515629612812958,0.30190902616838744,3.9624706899223114,1.4287107919669706,7,60.0,airframe.max_elevator,airframe,0.4188790204786391,0.05,0.020943951023931956,ground_impact,2.22,40.797544458926275,21.388613560511896,3.314501976234041,0.0,0.7261904761904762,0.0,0.0
4.0,15,2.22,1,0.25,0,1.9579042852514068,1.4110524674256828,2.618879441093246,6.150132514426754,-0.009413118134674638,0.4245946448684065,0.06680778830559155,4.5652735761584315,0.060716124154179485,0.2821920820822479,4.228529410068424,1.4492631579477007,7,60.0,airframe.max_elevator,airframe,0.4188790204786391,0.05,0.020943951023931956,ground_impact,2.22,40.542197355656725,20.764351264374948,3.1047577389465455,0.0,0.75,0.0,0.0
4.0,0,2.48,1,0.25,0,2.533956078880157,1.5078730524825894,2.8204283440091427,6.298910120524653,-0.018211088426760648,0.4435622568456366,0.065,4.7,0.06,0.3,4.0,1.4288992721907328,7,60.0,airframe.max_elevator,airframe,0.4188790204786391,0.1,0.04188790204786391,ground_impact,2.48,42.159487784103185,19.037573423326467,3.005783291498085,0.0,0.7872340425531915,0.0,0.0
4.0,1,2.6,1,0.25,0,2.9684905073831653,1.5742312051876872,3.1519699270752333,6.601781003919028,-0.014321897585005634,0.44986699708379374,0.06577673839752203,4.570952355386659,0.0551469765634464,0.33000624819513635,3.9705706040793256,1.4182988268893335,7,60.0,airframe.max_elevator,airframe,0.4188790204786391,0.1,0.04188790204786391,ground_impact,2.6,43.439801776366835,18.657385108904933,2.5717738130071353,0.0,0.826530612244898,0.0,0.0
4.0,2,2.58,1,0.25,0,2.7931336496121135,1.537720860520692,2.877011916390088,6.409157216204368,-0.008533416486620957,0.44569028031822927,0.06428724157605824,4.1638551873761624,0.06636539174031647,0.3114338956812706,4.134814580815061,1.44120695245206,7,60.0,airframe.max_elevator,airframe,0.4188790204786391,0.1,0.04188790204786391,ground_impact,2.58,42.37030065109906,18.445083012564,2.586335743798099,0.0,0.8247422680412371,0.0,0.0
4.0,3,2.7600000000000002,1,0.25,0,3.122062491400792,1.5488532411219904,2.9675270078861087,6.487798437091429,-0.0020176245568909804,0.44772695254167233,0.06268446121923109,4.336350357380637,0.05515479194800862,0.2820106664684216,4.17178330111812,1.4246835883790174,7,60.0,airframe.max_elevator,airframe,0.4188790204786391,0.1,0.04188790204786391,ground_impact,2.7600000000000002,42.91507883697831,17.46048993287707,2.3291102487579023,0.0,0.8557692307692307,0.0,0.0
4.0,4,2.44,1,0.25,0,2.47710559142356,1.5803629254771314,2.897703157692939,6.3412216422542524,-0.004584489360001644,0.455630594386128,0.06381785595855352,4.180630719342732,0.059804869770326875,0.30111774343157194,3.8014708311273617,1.422012753510219,7,60.0,airframe.max_elevator,airframe,0.4188790204786391,0.1,0.04188790204786391,ground_impact,2.44,42.45700705087113,20.474857247763136,3.0966782520271825,0.0,0.782608695652174,0.0,0.0
4.0,5,2.6,1,0.25,0,2.7558257082581954,1.5430872876849346,2.8510216853191745,6.317853472085062,-0.005464989144721943,0.4522350493478308,0.0624217189570092,4.63370430103694,0.06530633920429904,0.3086503437550528,3.8808036451019428,1.390010992718187,7,60.0,airframe.max_elevator,airframe,0.4188790204786391,0.1,0.04188790204786391,ground_impact,2.6,42.5287449561933,18.86772652073295,2.7335670294438446,0.0,0.8163265306122449,0.0,0.0
4.0,6,2.54,1,0.25,0,2.7412660920546377,1.5315635898964186,2.9303584778272493,6.432060607379642,-0.0020460574728215775,0.44466393819193,0.06515637336675334,4.342580092232875,0.056498397403540186,0.2971682681197388,4.097035513386014,1.428497097086861,7,60.0,airframe.max_elevator,airframe,0.4188790204786391,0.1,0.04188790204786391,ground_impact,2.54,42.57356929334709,18.68848214213758,2.7524901981208583,0.0,0.8125,0.0,0.0
4.0,7,2.16,1,0.25,0,1.7944262645331952,1.5113730618300698,2.7223381112357243,6.113250041493679,-0.028458264473983752,0.44615487810500243,0.06848455963844179,4.77649654918772,0.05932978830249504,0.3102436540079281,3.701137032373826,1.4134153665088793,7,60.0,airframe.max_elevator,airframe,0.4188790204786391,0.1,0.04188790204786391,ground_impact,2.16,40.61530495953902,22.131734501491575,4.168900539277487,0.0,0.6951219512195121,0.0,0.0
4.0,8,2.48,1,0.25,0,2.4757081501236833,1.5085125976070055,2.8013492544265786,6.261955446027409,-0.021914201858505823,0.44465384808492553,0.06372026305176655,4.744203806428032,0.06066278485949688,0.2990022401977588,3.930524520257145,1.4696048105776907,7,60.0,airframe.max_elevator,airframe,0.4188790204786391,0.1,0.04188790204786391,ground_impact,2.48,42.09822274089807,19.08105189268053,3.023610429446989,0.0,0.7872340425531915,0.0,0.0
4.0,9,2.62,1,0.25,0,2.8428553031966093,1.5365561844239035,2.9402105802160348,6.414014658606339,-0.014184423556606391,0.44772920097011126,0.06338676526046816,4.647285473614353,0.060382690645530375,0.31000871341251496,3.9854069611494864,1.4516963615488432,7,60.0,airframe.max_elevator,airframe,0.4188790204786391,0.1,0.04188790204786391,ground_impact,2.62,42.74515474078717,18.282011758440614,2.6342181592386478,0.0,0.8181818181818182,0.0,0.0
4.0,10,2.8000000000000003,1,0.25,0,3.4664257451282396,1.6535520570138325,3.354428442507907,6.858968729690829,-0.0001336176017421309,0.456566089481822,0.06627358933048151,3.9902737615486155,0.052649665041493834,0.32157783887484226,4.188552246593023,1.4280565011100315,7,60.0,airframe.max_elevator,airframe,0.4188790204786391,0.1,0.04188790204786391,ground_impact,2.8000000000000003,43.964855813305654,18.038071142752475,2.397971893311623,0.0,0.8301886792452831,0.0,0.0
4.0,11,2.4,1,0.25,0,2.3422415526467075,1.4788928348687354,2.7330806261818186,6.242359040614659,-0.008041005085148184,0.4377642156186596,0.06592790622121616,4.548088603371248,0.06045684138226205,0.2898650662349152,4.103410585085613,1.4522301712184607,7,60.0,airframe.max_elevator,airframe,0.4188790204786391,0.1,0.04188790204786391,ground_impact,2.4,41.60677219239538,19.26157401568998,3.121257563564176,0.0,0.7802197802197802,0.0,0.0
4.0,12,2.38,1,0.25,0,2.2497708779245587,1.4953113024845603,2.6745198268890533,6.157565550907719,-0.02419175033325044,0.4430567449626624,0.06527407704739453,4.6863227333968975,0.06815294053044922,0.3030470791558441,3.95091798696667,1.4170355867813895,7,60.0,airframe.max_elevator,airframe,0.4188790204786391,0.1,0.04188790204786391,ground_impact,2.38,41.388221196912866,19.856463603899982,3.2812652189874436,0.0,0.7666666666666667,0.0,0.0
4.0,13,2.7,1,0.25,0,3.00638415232481,1.566380893659236,3.0689744332314546,6.508853030570963,-0.01872285592811632,0.45152610694480055,0.06258078308375867,4.731953134052932,0.0507171319312291,0.29305038635192376,3.9447136158850062,1.4656254103938693,7,60.0,airframe.max_elevator,airframe,0.4188790204786391,0.1,0.04188790204786391,ground_impact,2.7,43.32083541035515,18.098012009747613,2.5021407135976155,0.0,0.8333333333333334,0.0,0.0
4.0,14,2.42,1,0.25,0,2.409991347894239,1.540558223621188,2.7872093276992898,6.276813815226005,-0.025081142398180593,0.4479547574928455,0.06492394526159549,4.2685017141274795,0.06515629612812958,0.30190902616838744,3.9624706899223114,1.4287107919669706,7,60.0,airframe.max_elevator,airframe,0.4188790204786391,0.1,0.04188790204786391,ground_impact,2.42,41.895803922913124,19.94848429048932,3.066507784644062,0.0,0.7802197802197802,0.0,0.0
4.0,15,2.4,1,0.25,0,2.34667775710191,1.456681830263923,2.6894192292433043,6.230370046118267,-0.005613131616148195,0.4335943449145644,0.06680778830559155,4.5652735761584315,0.060716124154179485,0.2821920820822479,4.228529410068424,1.4492631579477007,7,60.0,airframe.max_elevator,airframe,0.4188790204786391,0.1,0.04188790204786391,ground_impact,2.4,41.38070887865304,19.016642218003557,3.0669626206632774,0.0,0.7802197802197802,0.0,0.0
4.0,0,2.82,1,0.25,0,3.181291845558088,1.6104044862880205,2.9947378785455347,6.486730674142453,-0.016143902441176507,0.4605918988506907,0.065,4.7,0.06,0.3,4.0,1.4288992721907328,7,60.0,airframe.max_elevator,airframe,0.4188790204786391,0.15,0.06283185307179587,ground_impact,2.82,42.99292915321218,17.632237368045985,2.617210302787123,0.0,0.8301886792452831,0.0,0.0
4.0,1,17.12,7,1.75,0,4.171972131911573,1.4647462922646652,3.3791020158938974,7.009082814016261,-0.01467915753790873,0.3613648382848233,0.06577673839752203,4.570952355386659,0.0551469765634464,0.33000624819513635,3.9705706040793256,1.4182988268893335,7,60.0,airframe.max_elevator,airframe,0.4188790204786391,0.15,0.06283185307179587,ground_impact,17.12,43.65589582497129,24.79276372213449,3.839675943766246,0.0,0.5660964230171073,0.0,0.0
4.0,2,3.08,1,0.25,0,3.58164513429193,1.7097691672291306,3.134323364833824,6.6803318048836156,-0.005274279287407142,0.47155359699323185,0.06428724157605824,4.1638551873761624,0.06636539174031647,0.3114338956812706,4.134814580815061,1.44120695245206,7,60.0,airframe.max_elevator,airframe,0.4188790204786391,0.15,0.06283185307179587,ground_impact,3.08,42.565017808136055,17.074928964274175,2.161803817046726,0.0,0.75,0.0,0.0
4.0,3,60.0,25,6.25,0,3.7827921541489946,1.351357054802558,3.3942817948128385,7.025341347515941,0.18363427799231574,0.45653478019905525,0.06268446121923109,4.336350357380637,0.05515479194800862,0.2820106664684216,4.17178330111812,1.4246835883790174,7,60.0,airframe.max_elevator,airframe,0.4188790204786391,0.15,0.06283185307179587,none,,42.74843432740641,23.92053285520655,5.157946221415655,0.0,0.5630679752817157,0.0,0.0
4.0,4,60.0,25,6.25,0,3.845482946188021,1.3408939318121977,3.4241140882282446,7.0841204194322005,0.012164088230232448,0.4611896367130596,0.06381785595855352,4.180630719342732,0.059804869770326875,0.30111774343157194,3.8014708311273617,1.422012753510219,7,60.0,airframe.max_elevator,airframe,0.4188790204786391,0.15,0.06283185307179587,none,,43.31774136260885,23.501421621165164,4.706186975068234,0.0,0.5568884042166485,0.0,0.0
4.0,5,60.0,25,6.25,0,3.8333516244246244,1.3025840692652912,3.389710553974794,7.084856533438077,0.011173966451524098,0.4772972177559022,0.0624217189570092,4.63370430103694,0.06530633920429904,0.3086503437550528,3.8808036451019428,1.390010992718187,7,60.0,airframe.max_elevator,airframe,0.4188790204786391,0.15,0.06283185307179587,none,,42.8112254020536,22.940466003467506,3.9069123971787976,0.0,0.5641584878226099,0.0,0.0
4.0,6,3.06,1,0.25,0,3.611937491342907,1.7192155838364827,3.23614239308469,6.747786559417861,-0.004310654770637615,0.4719758479600047,0.06515637336675334,4.342580092232875,0.056498397403540186,0.2971682681197388,4.097035513386014,1.428497097086861,7,60.0,airframe.max_elevator,airframe,0.4188790204786391,0.15,0.06283185307179587,ground_impact,3.06,42.98961114356755,17.316504578789665,2.186964675940782,0.0,0.7565217391304347,0.0,0.0
4.0,7,2.36,1,0.25,0,2.260054700638652,1.5761463918031764,2.839360852957817,6.24635290949063,-0.01705141228316529,0.4576047340323653,0.06848455963844179,4.77649654918772,0.05932978830249504,0.3102436540079281,3.701137032373826,1.4134153665088793,7,60.0,airframe.max_elevator,airframe,0.4188790204786391,0.15,0.06283185307179587,ground_impact,2.36,42.020996290183,20.79694783693463,3.794150623053829,0.0,0.7528089887640449,0.0,0.0
4.0,8,2.82,1,0.25,0,3.0989815444443614,1.6100162455759113,2.9757479975944783,6.45195645673254,-0.008455206365882664,0.46173570449489126,0.06372026305176655,4.744203806428032,0.06066278485949688,0.2990022401977588,3.930524520257145,1.4696048105776907,7,60.0,airframe.max_elevator,airframe,0.4188790204786391,0.15,0.06283185307179587,ground_impact,2.82,42.84078411832469,17.66581169298213,2.613683818283027,0.0,0.8113207547169812,0.0,0.0
4.0,9,60.0,25,6.25,0,3.8394157533774473,1.3369627577030052,3.478439174610696,7.165440928845132,0.05756499921866184,0.4542334967683813,0.06338676526046816,4.647285473614353,0.060382690645530375,0.31000871341251496,3.9854069611494864,1.4516963615488432,7,60.0,airframe.max_elevator,airframe,0.4188790204786391,0.15,0.06283185307179587,none,,42.882052605997195,23.46862162507803,3.905094400999486,0.0,0.5663395129043984,0.0,0.0
4.0,10,17.080000000000002,7,1.75,0,4.1047338082872065,1.3686217503723308,3.3638998025782283,6.9911265116354375,-0.010262254308766726,0.3608882559232707,0.06627358933048151,3.9902737615486155,0.052649665041493834,0.32157783887484226,4.188552246593023,1.4280565011100315,7,60.0,airframe.max_elevator,airframe,0.4188790204786391,0.15,0.06283185307179587,ground_impact,17.080000000000002,43.42926485858683,24.332383956728414,4.971622011503528,0.0,0.5647425897035881,0.0,0.0
4.0,11,2.66,1,0.25,0,2.8517368856982195,1.55235962929471,2.8502909108306365,6.371404471660258,-0.0037225109949885066,0.45057052084000343,0.06592790622121616,4.548088603371248,0.06045684138226205,0.2898650662349152,4.103410585085613,1.4522301712184607,7,60.0,airframe.max_elevator,airframe,0.4188790204786391,0.15,0.06283185307179587,ground_impact,2.66,42.39463553623101,17.795799089732053,2.8638116454374427,0.0,0.84,0.0,0.0
4.0,12,2.62,1,0.25,0,2.7349992254832234,1.5552922999203969,2.7714228639599274,6.271366814749669,-0.003795555753331195,0.454926952567679,0.06527407704739453,4.6863227333968975,0.06815294053044922,0.3030470791558441,3.95091798696667,1.4170355867813895,7,60.0,airframe.max_elevator,airframe,0.4188790204786391,0.15,0.06283185307179587,ground_impact,2.62,42.18085424048625,18.444357136597116,3.0884860835290087,0.0,0.8181818181818182,0.0,0.0
4.0,13,17.44,7,1.75,0,4.0867907179891665,1.4073641538119752,3.283566796973801,6.86192851423122,-0.013684898515030384,0.37220697913789563,0.06258078308375867,4.731953134052932,0.0507171319312291,0.29305038635192376,3.9447136158850062,1.4656254103938693,7,60.0,airframe.max_elevator,airframe,0.4188790204786391,0.15,0.06283185307179587,ground_impact,17.44,43.06627089305226,24.409027642722407,4.861780182426877,0.0,0.5633587786259542,0.0,0.0
4.0,14,2.72,1,0.25,0,3.0062002179789618,1.62564135296135,2.925619690092827,6.433600627110504,-0.0010550393290172239,0.4634196110958969,0.06492394526159549,4.2685017141274795,0.06515629612812958,0.30190902616838744,3.9624706899223114,1.4287107919669706,7,60.0,airframe.max_elevator,airframe,0.4188790204786391,0.15,0.06283185307179587,ground_impact,2.72,42.811263353488,18.610828171605338,2.874264381757279,0.0,0.8349514563106796,0.0,0.0
4.0,15,2.64,1,0.25,0,2.818370208757019,1.5226767322422503,2.7871846282844257,6.337778451179075,-0.010431114119840861,0.4450979714568726,0.06680778830559155,4.5652735761584315,0.060716124154179485,0.2821920820822479,4.228529410068424,1.4492631579477007,7,60.0,airframe.max_elevator,airframe,0.4188790204786391,0.15,0.06283185307179587,ground_impact,2.64,42.06750714669109,17.48287936218085,2.9556375072358327,0.0,0.83,0.0,0.0
4.0,0,60.0,23,5.75,0,4.042502741674562,1.272888202385697,3.1087955899054487,6.7301041482538775,0.47803927725636436,0.4398402876108454,0.065,4.7,0.06,0.3,4.0,1.4288992721907328,7,60.0,airframe.max_elevator,airframe,0.4188790204786391,0.25,0.10471975511965978,none,,43.258836190673456,20.762952969849653,4.967225871826155,0.0,0.5343511450381679,0.0,0.0
4.0,1,60.0,23,5.75,0,4.028337517107349,1.3537119469044094,3.1931417101164654,6.789129156113596,0.19015140164714026,0.3774760492737339,0.06577673839752203,4.570952355386659,0.0551469765634464,0.33000624819513635,3.9705706040793256,1.4182988268893335,7,60.0,airframe.max_elevator,airframe,0.4188790204786391,0.25,0.10471975511965978,none,,44.04281133293289,22.26867025547834,5.34473888345304,0.0,0.534714649218466,0.0,0.0
4.0,2,60.0,23,5.75,0,4.188176666881306,1.240734999868985,2.979742337181449,6.602550397430097,0.6711715123518991,0.4475726186948609,0.06428724157605824,4.1638551873761624,0.06636539174031647,0.3114338956812706,4.134814580815061,1.44120695245206,7,60.0,airframe.max_elevator,airframe,0.4188790204786391,0.25,0.10471975511965978,none,,43.47743956843687,19.850257456045394,5.230765529473705,0.0,0.5459832788077063,0.0,0.0
4.0,3,60.0,22,5.5,0,4.277390174790096,1.2815562492159012,2.9613064419146005,6.519498711533182,0.6817758294140874,0.4222173435506369,0.06268446121923109,4.336350357380637,0.05515479194800862,0.2820106664684216,4.17178330111812,1.4246835883790174,7,60.0,airframe.max_elevator,airframe,0.4188790204786391,0.25,0.10471975511965978,none,,43.97362744181283,20.284716375465376,5.855998758630166,0.0,0.5339876408578699,0.0,0.0
4.0,4,60.0,23,5.75,0,4.220614774226159,1.2707923578070048,2.9806881074492977,6.56959051349373,0.6354244241498594,0.4239302131250887,0.06381785595855352,4.180630719342732,0.059804869770326875,0.30111774343157194,3.8014708311273617,1.422012753510219,7,60.0,airframe.max_elevator,airframe,0.4188790204786391,0.25,0.10471975511965978,none,,43.85085070198585,20.388179490115157,5.582760651774924,0.0,0.5383496910214467,0.0,0.0
4.0,5,60.0,23,5.75,0,4.14082578852439,1.2650255460242112,2.9047320124098928,6.496498784610042,0.5276770454550034,0.4332941677195991,0.0624217189570092,4.63370430103694,0.06530633920429904,0.3086503437550528,3.8808036451019428,1.390010992718187,7,60.0,airframe.max_elevator,airframe,0.4188790204786391,0.25,0.10471975511965978,none,,43.558623205418066,20.136804517283796,5.269322306393918,0.0,0.539440203562341,0.0,0.0
4.0,6,60.0,23,5.75,0,4.121652388175269,1.287649163502939,3.1178624957791095,6.719435120195057,0.5493390332291725,0.42431882585326575,0.06515637336675334,4.342580092232875,0.056498397403540186,0.2971682681197388,4.097035513386014,1.428497097086861,7,60.0,airframe.max_elevator,airframe,0.4188790204786391,0.25,0.10471975511965978,none,,43.82128869482184,21.038015505979274,5.525225727941573,0.0,0.5485278080697928,0.0,0.0
4.0,7,60.0,25,6.25,0,3.924298233872064,1.2583663650175954,3.2428887187773467,6.9083521055329475,0.3388225512782254,0.4438841870533801,0.06848455963844179,4.77649654918772,0.05932978830249504,0.3102436540079281,3.701137032373826,1.4134153665088793,7,60.0,airframe.max_elevator,airframe,0.4188790204786391,0.25,0.10471975511965978,none,,42.98226254318651,21.21448833611227,4.394446176678803,0.0,0.5499818247909851,0.0,0.0
4.0,8,60.0,23,5.75,0,4.046991170838377,1.2623861505607428,3.0242309720615523,6.626799475482649,0.5155471467271788,0.434060316942026,0.06372026305176655,4.744203806428032,0.06066278485949688,0.2990022401977588,3.930524520257145,1.4696048105776907,7,60.0,airframe.max_elevator,airframe,0.4188790204786391,0.25,0.10471975511965978,none,,43.44715790852242,20.419365299070613,5.242285968197243,0.0,0.5514358415121774,0.0,0.0
4.0,9,60.0,23,5.75,0,4.059821386674085,1.2757755337856083,2.9962154793658873,6.58660155279269,0.4726676231348989,0.41266521863252303,0.06338676526046816,4.647285473614353,0.060382690645530375,0.31000871341251496,3.9854069611494864,1.4516963615488432,7,60.0,airframe.max_elevator,airframe,0.4188790204786391,0.25,0.10471975511965978,none,,43.75325303761301,20.7186075032657,5.44489833489535,0.0,0.5539803707742639,0.0,0.0
4.0,10,60.0,23,5.75,0,4.165153163456385,1.3527774414767404,3.2097205913008056,6.79059869340214,0.4048928306714909,0.37704777677993556,0.06627358933048151,3.9902737615486155,0.052649665041493834,0.32157783887484226,4.188552246593023,1.4280565011100315,7,60.0,airframe.max_elevator,airframe,0.4188790204786391,0.25,0.10471975511965978,none,,44.333117042469105,21.86081189282259,5.83292121013122,0.0,0.5423482370047256,0.0,0.0
4.0,11,60.0,23,5.75,0,4.059832298280288,1.2519546235169992,3.142319450902421,6.78345002341099,0.5164544807296262,0.46726081849037077,0.06592790622121616,4.548088603371248,0.06045684138226205,0.2898650662349152,4.103410585085613,1.4522301712184607,7,60.0,airframe.max_elevator,airframe,0.4188790204786391,0.25,0.10471975511965978,none,,43.2319258744445,20.847222758233503,4.994223657804437,0.0,0.5321701199563795,0.0,0.0
4.0,12,60.0,23,5.75,0,4.068673257401881,1.2389037740437612,3.0808613900005084,6.739457428788165,0.46527212920950345,0.48269324907054745,0.06527407704739453,4.6863227333968975,0.06815294053044922,0.3030470791558441,3.95091798696667,1.4170355867813895,7,60.0,airframe.max_elevator,airframe,0.4188790204786391,0.25,0.10471975511965978,none,,42.79192371942348,20.307690253708273,4.569951985308797,0.0,0.5423482370047256,0.0,0.0
4.0,13,60.0,23,5.75,0,4.030826380519473,1.3177613548818268,3.012258284805022,6.544992025902837,0.45467859127697463,0.3785361131736271,0.06258078308375867,4.731953134052932,0.0507171319312291,0.29305038635192376,3.9447136158850062,1.4656254103938693,7,60.0,airframe.max_elevator,airframe,0.4188790204786391,0.25,0.10471975511965978,none,,44.21934920259007,21.660511345448686,6.062714463007937,0.0,0.549254816430389,0.0,0.0
4.0,14,60.0,23,5.75,0,4.150863678356443,1.2383635681266316,3.042368895439596,6.676409855432311,0.6203326421939959,0.46203624870513016,0.06492394526159549,4.2685017141274795,0.06515629612812958,0.30190902616838744,3.9624706899223114,1.4287107919669706,7,60.0,airframe.max_elevator,airframe,0.4188790204786391,0.25,0.10471975511965978,none,,43.24912883987353,20.197191308077315,5.000596200491341,0.0,0.5474372955288986,0.0,0.0
4.0,15,60.0,24,6.0,0,4.029422975380738,1.2399222811755621,3.1690328418827365,6.826543057495657,0.4069104336420197,0.4900289878593321,0.06680778830559155,4.5652735761584315,0.060716124154179485,0.2821920820822479,4.228529410068424,1.4492631579477007,7,60.0,airframe.max_elevator,airframe,0.4188790204786391,0.25,0.10471975511965978,none,,42.982417809824625,21.035154942543624,4.807265981834693,0.0,0.5336241366775718,0.0,0.0
4.0,0,60.0,17,4.25,0,4.04100166664314,0.820922853957142,1.9401505358299143,5.71477852617998,1.4475982984258973,0.35954924357689005,0.065,4.7,0.06,0.3,4.0,1.4288992721907328,7,60.0,airframe.max_elevator,airframe,0.4188790204786391,0.5,0.20943951023931956,none,,41.442509996779485,10.979109179007091,5.079903420521682,0.0,0.5401672119229372,0.0,0.0
4.0,1,60.0,17,4.25,0,4.099728929861436,0.860922437819066,2.0245018907394456,5.795143632742977,1.3559916773303173,0.31363079593771215,0.06577673839752203,4.570952355386659,0.0551469765634464,0.33000624819513635,3.9705706040793256,1.4182988268893335,7,60.0,airframe.max_elevator,airframe,0.4188790204786391,0.5,0.20943951023931956,none,,41.81995199877159,11.924303231870613,5.476007210128614,0.0,0.5318066157760815,0.0,0.0
4.0,2,60.0,17,4.25,0,4.095086176808407,0.8181023380832098,1.9556706609337313,5.756294147597802,1.4255273348178672,0.36881509726109624,0.06428724157605824,4.1638551873761624,0.06636539174031647,0.3114338956812706,4.134814580815061,1.44120695245206,7,60.0,airframe.max_elevator,airframe,0.4188790204786391,0.5,0.20943951023931956,none,,41.33755802629554,10.693911167793903,4.930372181796377,0.0,0.539440203562341,0.0,0.0
4.0,3,60.0,17,4.25,0,3.912261245033336,0.7609958811708935,1.8495739052831432,5.632480068206421,1.4769903994135711,0.3484667804311992,0.06268446121923109,4.336350357380637,0.05515479194800862,0.2820106664684216,4.17178330111812,1.4246835883790174,7,60.0,airframe.max_elevator,airframe,0.4188790204786391,0.5,0.20943951023931956,none,,41.255334631689934,10.66935902261003,4.951511988985887,0.0,0.5401672119229372,0.0,0.0
4.0,4,60.0,17,4.25,0,4.045420505631196,0.8001540703600346,1.9350991181240473,5.729969716818225,1.4547270070020337,0.35135277904366313,0.06381785595855352,4.180630719342732,0.059804869770326875,0.30111774343157194,3.8014708311273617,1.422012753510219,7,60.0,airframe.max_elevator,airframe,0.4188790204786391,0.5,0.20943951023931956,none,,41.45418149270721,12.365802069388318,5.0814906234442985,0.0,0.5358051617593602,0.0,0.0
4.0,5,60.0,17,4.25,0,3.8516622484762286,0.7987820908939252,1.7965083391457441,5.56943822208563,1.4273242173962126,0.3505933188680954,0.0624217189570092,4.63370430103694,0.06530633920429904,0.3086503437550528,3.8808036451019428,1.390010992718187,7,60.0,airframe.max_elevator,airframe,0.4188790204786391,0.5,0.20943951023931956,none,,40.949792230301355,11.058612634324348,4.920432209917851,0.0,0.5423482370047256,0.0,0.0
4.0,6,60.0,17,4.25,0,4.104625477609478,0.811876113608418,1.991412692736188,5.779741103789379,1.479862594466121,0.3523164904542788,0.06515637336675334,4.342580092232875,0.056498397403540186,0.2971682681197388,4.097035513386014,1.428497097086861,7,60.0,airframe.max_elevator,airframe,0.4188790204786391,0.5,0.20943951023931956,none,,41.66164234062752,10.886371941623851,5.135435675026771,0.0,0.5350781533987641,0.0,0.0
4.0,7,60.0,17,4.25,0,4.205347240391963,0.8623856997656353,2.0963459709591725,5.87620206006391,1.393848790335671,0.3674710066235668,0.06848455963844179,4.77649654918772,0.05932978830249504,0.3102436540079281,3.701137032373826,1.4134153665088793,7,60.0,airframe.max_elevator,airframe,0.4188790204786391,0.5,0.20943951023931956,none,,41.949978232681666,13.449952030853005,5.333153761211235,0.0,0.5321701199563795,0.0,0.0
4.0,8,60.0,17,4.25,0,3.932173439172755,0.8036411127203587,1.860303569712751,5.62919951928636,1.4431614283962126,0.35354412166604066,0.06372026305176655,4.744203806428032,0.06066278485949688,0.2990022401977588,3.930524520257145,1.4696048105776907,7,60.0,airframe.max_elevator,airframe,0.4188790204786391,0.5,0.20943951023931956,none,,41.20001587805073,11.027825606261194,4.937825668178095,0.0,0.544529262086514,0.0,0.0
4.0,9,60.0,17,4.25,0,3.9251101122646834,0.8161743254506415,1.8620705021418487,5.629406098859765,1.437354160786799,0.3375468353274476,0.06338676526046816,4.647285473614353,0.060382690645530375,0.31000871341251496,3.9854069611494864,1.4516963615488432,7,60.0,airframe.max_elevator,airframe,0.4188790204786391,0.5,0.20943951023931956,none,,41.25295560953622,10.994544801120808,4.993295966499593,0.0,0.5438022537259178,0.0,0.0
4.0,10,60.0,17,4.25,0,4.189260669699482,0.8309121804937954,2.095367784986668,5.891974971294116,1.4428045581502396,0.31846458976173475,0.06627358933048151,3.9902737615486155,0.052649665041493834,0.32157783887484226,4.188552246593023,1.4280565011100315,7,60.0,airframe.max_elevator,airframe,0.4188790204786391,0.5,0.20943951023931956,none,,42.088377005483565,11.694935662915633,5.433006337941457,0.0,0.52453653217012,0.0,0.0
4.0,11,60.0,17,4.25,0,4.126953510270703,0.8174830909152837,1.9956347505635168,5.7834513148748234,1.4580194514026974,0.38287093979463455,0.06592790622121616,4.548088603371248,0.06045684138226205,0.2898650662349152,4.103410585085613,1.4522301712184607,7,60.0,airframe.max_elevator,airframe,0.4188790204786391,0.5,0.20943951023931956,none,,41.51693120617933,10.961364911157343,4.986861821903107,0.0,0.539440203562341,0.0,0.0
4.0,12,60.0,17,4.25,0,4.069329008337005,0.8248698343906479,1.9411416269785926,5.728526345962458,1.4116677816456866,0.3901108435116667,0.06527407704739453,4.6863227333968975,0.06815294053044922,0.3030470791558441,3.95091798696667,1.4170355867813895,7,60.0,airframe.max_elevator,airframe,0.4188790204786391,0.5,0.20943951023931956,none,,41.2368650593905,11.454458450784635,4.932496268413149,0.0,0.5430752453653217,0.0,0.0
4.0,13,60.0,17,4.25,0,3.850221276460746,0.7889300763949556,1.8265300959808866,5.580860616414296,1.490119676325463,0.31436665320546614,0.06258078308375867,4.731953134052932,0.0507171319312291,0.29305038635192376,3.9447136158850062,1.4656254103938693,7,60.0,airframe.max_elevator,airframe,0.4188790204786391,0.5,0.20943951023931956,none,,41.26031699757854,11.07615623880591,5.25487468580073,0.0,0.5398037077426391,0.0,0.0
4.0,14,60.0,17,4.25,0,4.113295241943428,0.810733454581647,1.9729992846299507,5.773851252343295,1.426367071621983,0.37984975456705755,0.06492394526159549,4.2685017141274795,0.06515629612812958,0.30190902616838744,3.9624706899223114,1.4287107919669706,7,60.0,airframe.max_elevator,airframe,0.4188790204786391,0.5,0.20943951023931956,none,,41.41884912196379,11.715236309380888,5.010634365621193,0.0,0.5376226826608506,0.0,0.0
4.0,15,60.0,17,4.25,0,4.177379669593833,0.8235450856763687,2.034923812821938,5.827293751419732,1.4457137961444226,0.4029737502408425,0.06680778830559155,4.5652735761584315,0.060716124154179485,0.2821920820822479,4.228529410068424,1.4492631579477007,7,60.0,airframe.max_elevator,airframe,0.4188790204786391,0.5,0.20943951023931956,none,,41.45631078402272,10.618565244026847,4.9403801687189945,0.0,0.5376226826608506,0.0,0.0
4.0,0,60.0,15,3.75,1,3.0068448427066494,0.4481802536073163,0.9438847367729405,4.777964581552997,1.8992020954175912,0.3305399637328825,0.065,4.7,0.06,0.3,4.0,1.4288992721907328,7,60.0,airframe.max_elevator,airframe,0.4188790204786391,1.0,0.4188790204786391,none,,37.79587907930803,7.49699647721879,7.357452017552144,0.0,0.49909123954925483,0.0,0.0
4.0,1,60.0,15,3.75,0,3.023873614513582,0.4850720278466039,1.0360646366109996,4.868876694133007,1.8799021726028449,0.2923188502396518,0.06577673839752203,4.570952355386659,0.0551469765634464,0.33000624819513635,3.9705706040793256,1.4182988268893335,7,60.0,airframe.max_elevator,airframe,0.4188790204786391,1.0,0.4188790204786391,none,,38.42282134989025,7.546234048441775,7.46329276402375,0.0,0.49363867684478374,0.0,0.0
4.0,2,60.0,15,3.75,0,3.0853173278361417,0.4482507249685003,1.0246077439594776,4.887192844284284,1.9120621898709236,0.3333673182614336,0.06428724157605824,4.1638551873761624,0.06636539174031647,0.3114338956812706,4.134814580815061,1.44120695245206,7,60.0,airframe.max_elevator,airframe,0.4188790204786391,1.0,0.4188790204786391,none,,37.927795735584695,7.29167263864137,7.209551862384145,0.0,0.49581970192657215,0.0,0.0
4.0,3,60.0,15,3.75,1,3.004083478023946,0.43954447020503135,0.9359474727830388,4.775685326520441,1.9040138044523378,0.3254936666770769,0.06268446121923109,4.336350357380637,0.05515479194800862,0.2820106664684216,4.17178330111812,1.4246835883790174,7,60.0,airframe.max_elevator,airframe,0.4188790204786391,1.0,0.4188790204786391,none,,37.79127146100361,6.807825510185619,7.391398267866218,0.0,0.49727371864776443,0.0,0.0
4.0,4,60.0,15,3.75,0,3.077444960168557,0.4516438423049945,1.012811789054319,4.866212656734445,1.914386797348367,0.3231695536298028,0.06381785595855352,4.180630719342732,0.059804869770326875,0.30111774343157194,3.8014708311273617,1.422012753510219,7,60.0,airframe.max_elevator,airframe,0.4188790204786391,1.0,0.4188790204786391,none,,38.09351306987996,8.551517968128435,7.247987114617736,0.0,0.49581970192657215,0.0,0.0
4.0,5,60.0,15,3.75,1,2.921069091560468,0.431253529011255,0.8568178540030031,4.682976928368606,1.9414459899612713,0.31898770336840465,0.0624217189570092,4.63370430103694,0.06530633920429904,0.3086503437550528,3.8808036451019428,1.390010992718187,7,60.0,airframe.max_elevator,airframe,0.4188790204786391,1.0,0.4188790204786391,none,,37.40887136157045,7.601282553709942,7.451079021867155,0.0,0.5005452562704471,0.0,0.0
4.0,6,60.0,15,3.75,0,3.0923116478562376,0.45750355360989386,1.0313005430470406,4.881140608017379,1.892815165213624,0.3263498949854678,0.06515637336675334,4.342580092232875,0.056498397403540186,0.2971682681197388,4.097035513386014,1.428497097086861,7,60.0,airframe.max_elevator,airframe,0.4188790204786391,1.0,0.4188790204786391,none,,38.15264603280011,7.4008282305205,7.316415811813046,0.0,0.4954561977462741,0.0,0.0
4.0,7,60.0,15,3.75,0,3.094090153801828,0.4773404939734211,1.0555224047813336,4.901249308455397,1.9108843472449275,0.3367920001408217,0.06848455963844179,4.77649654918772,0.05932978830249504,0.3102436540079281,3.701137032373826,1.4134153665088793,7,60.0,airframe.max_elevator,airframe,0.4188790204786391,1.0,0.4188790204786391,none,,38.17358040093699,9.139180044325693,7.261083848388232,0.0,0.4961832061068702,0.0,0.0
4.0,8,60.0,15,3.75,1,2.943202655923616,0.43774108858764393,0.884589005256703,4.710257342360999,1.911865975126324,0.32529728654810725,0.06372026305176655,4.744203806428032,0.06066278485949688,0.2990022401977588,3.930524520257145,1.4696048105776907,7,60.0,airframe.max_elevator,airframe,0.4188790204786391,1.0,0.4188790204786391,none,,37.614582253468676,7.550234228084077,7.4458088786595225,0.0,0.49981824790985097,0.0,0.0
4.0,9,60.0,15,3.75,1,2.9632696144602537,0.44751969557339555,0.9024679762631449,4.726482515394091,1.9125618728812634,0.3107950723118515,0.06338676526046816,4.647285473614353,0.060382690645530375,0.31000871341251496,3.9854069611494864,1.4516963615488432,7,60.0,airframe.max_elevator,airframe,0.4188790204786391,1.0,0.4188790204786391,none,,37.70789786589858,7.258310118284247,7.484614532181983,0.0,0.4994547437295529,0.0,0.0
4.0,10,60.0,15,3.75,0,3.0740331854265808,0.4843031436960388,1.1579239981634306,5.018817515895465,1.8753435812349195,0.2964161150262505,0.06627358933048151,3.9902737615486155,0.052649665041493834,0.32157783887484226,4.188552246593023,1.4280565011100315,7,60.0,airframe.max_elevator,airframe,0.4188790204786391,1.0,0.4188790204786391,none,,38.80135851039823,7.287255229098109,7.421386337110419,0.0,0.4827335514358415,0.0,0.0
4.0,11,60.0,15,3.75,0,3.0671877524096973,0.44922978838238137,1.0023149927226858,4.852977347498408,1.9077627286949659,0.35041350458596265,0.06592790622121616,4.548088603371248,0.06045684138226205,0.2898650662349152,4.103410585085613,1.4522301712184607,7,60.0,airframe.max_elevator,airframe,0.4188790204786391,1.0,0.4188790204786391,none,,37.854773717861136,7.446587196442676,7.234492818101672,0.0,0.4965467102871683,0.0,0.0
4.0,12,60.0,15,3.75,1,3.013962202106787,0.43757654432030757,0.9393682238298577,4.785597518615988,1.9214555320583389,0.35058995988021513,0.06527407704739453,4.6863227333968975,0.06815294053044922,0.3030470791558441,3.95091798696667,1.4170355867813895,7,60.0,airframe.max_elevator,airframe,0.4188790204786391,1.0,0.4188790204786391,none,,37.555449225124384,7.834011130080722,7.242142221781639,0.0,0.500181752090149,0.0,0.0
4.0,13,60.0,15,3.75,1,2.9182760496714453,0.4419038360228364,0.8703621160832554,4.678362685291551,1.9395554152680736,0.2985145215601927,0.06258078308375867,4.731953134052932,0.0507171319312291,0.29305038635192376,3.9447136158850062,1.4656254103938693,7,60.0,airframe.max_elevator,airframe,0.4188790204786391,1.0,0.4188790204786391,none,,37.72523538469275,7.223663580072885,7.490096124247743,0.0,0.4994547437295529,0.0,0.0
4.0,14,60.0,15,3.75,0,3.0866997647360854,0.4459832798492485,1.0212635406960098,4.882802031947029,1.9230574877824735,0.3437733444293715,0.06492394526159549,4.2685017141274795,0.06515629612812958,0.30190902616838744,3.9624706899223114,1.4287107919669706,7,60.0,airframe.max_elevator,airframe,0.4188790204786391,1.0,0.4188790204786391,none,,37.91579518211324,8.053852978721169,7.133914184853423,0.0,0.495092693565976,0.0,0.0
4.0,15,60.0,15,3.75,0,3.0784455968715716,0.4479752810662787,1.0244451650090314,4.88192416129557,1.9465763683112869,0.36676094250362967,0.06680778830559155,4.5652735761584315,0.060716124154179485,0.2821920820822479,4.228529410068424,1.4492631579477007,7,60.0,airframe.max_elevator,airframe,0.4188790204786391,1.0,0.4188790204786391,none,,37.72565005407917,7.150638276395628,7.168602852299648,0.0,0.49581970192657215,0.0,0.0
4.0,0,7.34,2,0.5,0,1.2775073422442962,2.1779396593287994,0.2372356271096124,4.001881373069244,-3.648540197075632e-05,4.586842047233146e-05,0.065,4.7,0.06,0.3,4.0,1.4288992721907328,7,60.0,firmware.thrust_ki,firmware,0.25,-1.0,-0.25,ground_impact,7.34,31.106527066994484,9.532967766789875,10.36346777582324,0.0,0.40217391304347827,0.0,0.43478260869565216
4.0,1,7.9,3,0.75,0,1.4295062046178653,1.9778813259018966,0.30925977201873606,4.134057580124105,-0.008275968631429664,0.0048806209345982334,0.06577673839752203,4.570952355386659,0.0551469765634464,0.33000624819513635,3.9705706040793256,1.4182988268893335,7,60.0,firmware.thrust_ki,firmware,0.25,-1.0,-0.25,ground_impact,7.9,32.96693058378567,9.049170814344123,9.790146163986515,0.0,0.4781144781144781,0.0,0.4276094276094276
4.0,2,7.18,2,0.5,0,1.3154945078210893,2.179743813092852,0.2570392826099711,4.114174223777854,-0.005421122015656969,0.00016189071476328936,0.06428724157605824,4.1638551873761624,0.06636539174031647,0.3114338956812706,4.134814580815061,1.44120695245206,7,60.0,firmware.thrust_ki,firmware,0.25,-1.0,-0.25,ground_impact,7.18,32.04521399322948,9.31060735253598,10.201078087665158,0.0,0.40370370370370373,0.0,0.4074074074074074
4.0,3,8.02,3,0.75,0,1.4242360330785069,1.9808631643912087,0.2698192980160638,4.091436992320993,-0.014273008556090922,0.00660324757178415,0.06268446121923109,4.336350357380637,0.05515479194800862,0.2820106664684216,4.17178330111812,1.4246835883790174,7,60.0,firmware.thrust_ki,firmware,0.25,-1.0,-0.25,ground_impact,8.02,32.2641142868578,8.578280353615106,9.66035052048371,0.0,0.4750830564784053,0.0,0.42857142857142855
4.0,4,6.82,2,0.5,0,1.0687794842685516,2.354964191998542,0.2084605589603199,4.07982231226029,-0.007768042402547226,0.0,0.06381785595855352,4.180630719342732,0.059804869770326875,0.30111774343157194,3.8014708311273617,1.422012753510219,7,60.0,firmware.thrust_ki,firmware,0.25,-1.0,-0.25,ground_impact,6.82,30.831354993269144,9.488175879980536,10.446748065497124,0.0,0.35546875,0.0,0.453125
4.0,5,7.42,2,0.5,0,1.2477220179502275,2.1796664373692467,0.24138925623552668,3.9288411959776726,-0.012265268244667582,4.743766741167464e-05,0.0624217189570092,4.63370430103694,0.06530633920429904,0.3086503437550528,3.8808036451019428,1.390010992718187,7,60.0,firmware.thrust_ki,firmware,0.25,-1.0,-0.25,ground_impact,7.42,30.624757032208432,9.888162471347332,10.486574423574078,0.0,0.4014336917562724,0.0,0.44086021505376344
4.0,6,7.46,3,0.75,0,1.4793213332564548,2.1260608335127547,0.27715989564412663,4.127262778500317,-0.0028093001681824877,0.0008906650321047984,0.06515637336675334,4.342580092232875,0.056498397403540186,0.2971682681197388,4.097035513386014,1.428497097086861,7,60.0,firmware.thrust_ki,firmware,0.25,-1.0,-0.25,ground_impact,7.46,32.24530505880971,8.743709574313703,10.064863229240311,0.0,0.43214285714285716,0.0,0.425
4.0,7,6.34,2,0.5,0,1.235012487703626,2.491159015226486,0.17626170481313555,4.013166296785576,-0.01110463913500983,0.0,0.06848455963844179,4.77649654918772,0.05932978830249504,0.3102436540079281,3.701137032373826,1.4134153665088793,7,60.0,firmware.thrust_ki,firmware,0.25,-1.0,-0.25,ground_impact,6.34,29.978635091866693,9.707574121476345,10.454264491861917,0.0,0.29831932773109243,0.0,0.49159663865546216
4.0,8,7.44,2,0.5,0,1.30842405027515,2.1877885244953834,0.228815380213709,3.958730464106392,-0.012359081555875449,9.637365814033848e-06,0.06372026305176655,4.744203806428032,0.06066278485949688,0.2990022401977588,3.930524520257145,1.4696048105776907,7,60.0,firmware.thrust_ki,firmware,0.25,-1.0,-0.25,ground_impact,7.44,30.470412164735375,9.566158407703375,10.366722402583916,0.0,0.3964285714285714,0.0,0.44642857142857145
4.0,9,7.8,3,0.75,0,1.4899098568127909,2.0446998292236938,0.2454872807790604,3.9978819017405467,-0.001301725391417494,0.0027513958693461014,0.06338676526046816,4.647285473614353,0.060382690645530375,0.31000871341251496,3.9854069611494864,1.4516963615488432,7,60.0,firmware.thrust_ki,firmware,0.25,-1.0,-0.25,ground_impact,7.8,31.520907117577273,8.930655721904934,10.043913604825496,0.0,0.44368600682593856,0.0,0.43686006825938567
4.0,10,7.86,3,0.75,0,1.4144058606535534,1.9310385441362237,0.4637203375718892,4.356534040600912,-0.012461892139203925,0.00811201646345485,0.06627358933048151,3.9902737615486155,0.052649665041493834,0.32157783887484226,4.188552246593023,1.4280565011100315,7,60.0,firmware.thrust_ki,firmware,0.25,-1.0,-0.25,ground_impact,7.86,34.17658529438105,9.000251342472028,9.530474360058728,0.0,0.5016949152542373,0.0,0.39661016949152544
4.0,11,7.08,2,0.5,0,1.1811221638904645,2.247912908609391,0.23416746590543305,4.060938971865404,-0.012347519877422351,0.0,0.06592790622121616,4.548088603371248,0.06045684138226205,0.2898650662349152,4.103410585085613,1.4522301712184607,7,60.0,firmware.thrust_ki,firmware,0.25,-1.0,-0.25,ground_impact,7.08,31.149746128298833,9.504430594120983,10.35526721265618,0.0,0.38345864661654133,0.0,0.424812030075188
4.0,12,6.74,2,0.5,0,1.1340883921355513,2.3474144965942423,0.21098240572601817,3.9639817260677224,-0.0005764136534215248,0.0,0.06527407704739453,4.6863227333968975,0.06815294053044922,0.3030470791558441,3.95091798696667,1.4170355867813895,7,60.0,firmware.thrust_ki,firmware,0.25,-1.0,-0.25,ground_impact,6.74,30.07533814160133,10.32681208460276,10.641966309359475,0.0,0.3359683794466403,0.0,0.4308300395256917
4.0,13,8.34,3,0.75,0,1.4132855274104046,1.9374509183440167,0.2564191664280675,4.009630381160373,-0.004309489674940369,0.006698719606714361,0.06258078308375867,4.731953134052932,0.0507171319312291,0.29305038635192376,3.9447136158850062,1.4656254103938693,7,60.0,firmware.thrust_ki,firmware,0.25,-1.0,-0.25,ground_impact,8.34,31.6209342808423,8.45340520810112,9.654397055015128,0.0,0.4792332268370607,0.0,0.45686900958466453
4.0,14,6.7,2,0.5,0,1.0950018723219348,2.360017169352419,0.20823914980702948,4.068889145103419,-0.001588799049542438,0.0,0.06492394526159549,4.2685017141274795,0.06515629612812958,0.30190902616838744,3.9624706899223114,1.4287107919669706,7,60.0,firmware.thrust_ki,firmware,0.25,-1.0,-0.25,ground_impact,6.7,30.857299581451656,9.86192879633692,10.507799388641532,0.0,0.34523809523809523,0.0,0.42857142857142855
4.0,15,7.04,2,0.5,0,1.1818767770253733,2.2423023235571753,0.24108573267391528,4.079576906268242,-0.007773815235980305,0.0,0.06680778830559155,4.5652735761584315,0.060716124154179485,0.2821920820822479,4.228529410068424,1.4492631579477007,7,60.0,firmware.thrust_ki,firmware,0.25,-1.0,-0.25,ground_impact,7.04,31.360416962129914,9.436561841911582,10.305839013970104,0.0,0.3849056603773585,0.0,0.41132075471698115
4.0,0,9.4,3,0.75,0,2.3324525821456326,1.7508441279027014,0.30221892910655884,4.247749131628078,-0.00279933433680417,0.09350597843211163,0.065,4.7,0.06,0.3,4.0,1.4288992721907328,7,60.0,firmware.thrust_ki,firmware,0.25,-0.5,-0.125,ground_impact,9.4,32.47685053866388,7.45134509751253,8.078763526139861,0.0,0.5694050991501416,0.0,0.13314447592067988
4.0,1,11.540000000000001,3,0.75,0,2.9746065900460086,1.6888661855666482,0.48583961714158513,4.368911039873522,-0.014675616646458271,0.09880508470217005,0.06577673839752203,4.570952355386659,0.0551469765634464,0.33000624819513635,3.9705706040793256,1.4182988268893335,7,60.0,firmware.thrust_ki,firmware,0.25,-0.5,-0.125,ground_impact,11.540000000000001,34.108690382982,7.501316451017918,10.100447669814708,0.0,0.42725173210161665,0.0,0.20554272517321015
4.0,2,9.200000000000001,3,0.75,0,2.4332186477733657,1.7601554597913296,0.43469470980841807,4.395932321587839,-0.009276372365512053,0.09979996712296597,0.06428724157605824,4.1638551873761624,0.06636539174031647,0.3114338956812706,4.134814580815061,1.44120695245206,7,60.0,firmware.thrust_ki,firmware,0.25,-0.5,-0.125,ground_impact,9.200000000000001,33.16739895370387,7.3327063679770825,7.967806342112897,0.0,0.5635838150289018,0.0,0.10404624277456648
4.0,3,10.540000000000001,3,0.75,0,3.1007489426577135,1.7395892269038966,0.3924643863141901,4.358453843546061,-0.0025847260201530406,0.0993309356262449,0.06268446121923109,4.336350357380637,0.05515479194800862,0.2820106664684216,4.17178330111812,1.4246835883790174,7,60.0,firmware.thrust_ki,firmware,0.25,-0.5,-0.125,ground_impact,10.540000000000001,33.1397436262035,6.74624478584997,7.864686835921742,0.0,0.48484848484848486,0.0,0.1717171717171717
4.0,4,8.92,3,0.75,0,1.9206117666534426,1.8324601470242847,0.36014419664435615,4.31181508583707,-0.006759115823602873,0.08651489934706438,0.06381785595855352,4.180630719342732,0.059804869770326875,0.30111774343157194,3.8014708311273617,1.422012753510219,7,60.0,firmware.thrust_ki,firmware,0.25,-0.5,-0.125,ground_impact,8.92,32.63769268343898,8.530327900052116,8.213847091659504,0.0,0.5492537313432836,0.0,0.11940298507462686
4.0,5,9.620000000000001,3,0.75,0,2.3774938331219038,1.716079080639683,0.2237739688821442,4.166144163239657,-0.01218233374201087,0.09240036597982385,0.0624217189570092,4.63370430103694,0.06530633920429904,0.3086503437550528,3.8808036451019428,1.390010992718187,7,60.0,firmware.thrust_ki,firmware,0.25,-0.5,-0.125,ground_impact,9.620000000000001,32.19178099121284,7.561983416840255,7.988707283562171,0.0,0.5623268698060941,0.0,0.14958448753462603
4.0,6,9.58,3,0.75,0,2.789806825401676,1.7320418913269704,0.4676036806886257,4.426402167588025,-0.010559455840553483,0.09854196910828879,0.06515637336675334,4.342580092232875,0.056498397403540186,0.2971682681197388,4.097035513386014,1.428497097086861,7,60.0,firmware.thrust_ki,firmware,0.25,-0.5,-0.125,ground_impact,9.58,33.35710833121075,7.348732373409333,7.882501224257412,0.0,0.525,0.0,0.125
4.0,7,8.26,3,0.75,0,1.3901952248240361,1.9573269838780962,0.2507781876385889,4.187754266702225,-0.0007773614518782994,0.0759701262325953,0.06848455963844179,4.77649654918772,0.05932978830249504,0.3102436540079281,3.701137032373826,1.4134153665088793,7,60.0,firmware.thrust_ki,firmware,0.25,-0.5,-0.125,ground_impact,8.26,32.18143345284653,9.13583648604314,8.667778317140998,0.0,0.5096774193548387,0.0,0.1064516129032258
4.0,8,9.52,3,0.75,0,2.3654626764052153,1.7365834793624828,0.248026127629207,4.190428841367486,-0.003190415326953848,0.09095971782484484,0.06372026305176655,4.744203806428032,0.06066278485949688,0.2990022401977588,3.930524520257145,1.4696048105776907,7,60.0,firmware.thrust_ki,firmware,0.25,-0.5,-0.125,ground_impact,9.52,31.89033839965914,7.508901895849899,8.010705835269851,0.0,0.5614525139664804,0.0,0.14804469273743018
4.0,9,10.3,3,0.75,0,3.0268600314823284,1.6688135584964965,0.3181250298570098,4.2846166818737235,-0.005857571857917342,0.0989295349683948,0.06338676526046816,4.647285473614353,0.060382690645530375,0.31000871341251496,3.9854069611494864,1.4516963615488432,7,60.0,firmware.thrust_ki,firmware,0.25,-0.5,-0.125,ground_impact,10.3,32.76654002629784,7.208306944828612,7.60802177909201,0.0,0.5116279069767442,0.0,0.16020671834625322
4.0,10,11.42,3,0.75,0,2.936711527754715,1.6917791733802945,0.6840485209001325,4.576486081757478,-0.006357277878016779,0.1019444868716319,0.06627358933048151,3.9902737615486155,0.052649665041493834,0.32157783887484226,4.188552246593023,1.4280565011100315,7,60.0,firmware.thrust_ki,firmware,0.25,-0.5,-0.125,ground_impact,11.42,34.99947132909074,8.390002052120245,10.09499195273803,0.0,0.4125874125874126,0.0,0.17016317016317017
4.0,11,8.92,3,0.75,0,1.9179880637262816,1.8320526361346285,0.33532032634580455,4.280867912639889,-0.006742864185135582,0.09255775549435825,0.06592790622121616,4.548088603371248,0.06045684138226205,0.2898650662349152,4.103410585085613,1.4522301712184607,7,60.0,firmware.thrust_ki,firmware,0.25,-0.5,-0.125,ground_impact,8.92,32.41472377224263,7.39637596052,8.267899892967371,0.0,0.5462686567164179,0.0,0.10746268656716418
4.0,12,8.6,3,0.75,0,1.4540696100932795,1.8863018672131588,0.20201946054199152,4.127219801971323,-0.013391151868098833,0.08444454455214076,0.06527407704739453,4.6863227333968975,0.06815294053044922,0.3030470791558441,3.95091798696667,1.4170355867813895,7,60.0,firmware.thrust_ki,firmware,0.25,-0.5,-0.125,ground_impact,8.6,31.711364536794864,8.378775340456027,8.51822796002267,0.0,0.5201238390092879,0.0,0.11145510835913312
4.0,13,12.0,3,0.75,0,2.943041218460697,1.6446503028269717,0.37165457672955693,4.215440949840409,-0.011692589986098692,0.10368571359902429,0.06258078308375867,4.731953134052932,0.0507171319312291,0.29305038635192376,3.9447136158850062,1.4656254103938693,7,60.0,firmware.thrust_ki,firmware,0.25,-0.5,-0.125,ground_impact,12.0,32.788803337122694,8.06002406900832,10.11611559456823,0.0,0.4279379157427938,0.0,0.20620842572062084
4.0,14,8.620000000000001,3,0.75,0,1.5991809976816171,1.8821329934471207,0.32382641261756906,4.273988440078109,-0.011231939532997712,0.08832153179758542,0.06492394526159549,4.2685017141274795,0.06515629612812958,0.30190902616838744,3.9624706899223114,1.4287107919669706,7,60.0,firmware.thrust_ki,firmware,0.25,-0.5,-0.125,ground_impact,8.620000000000001,32.47353402001467,8.01661255166463,8.38674544730728,0.0,0.5308641975308642,0.0,0.09876543209876543
4.0,15,8.74,3,0.75,0,1.790296666296656,1.8640337644900873,0.34862488356507365,4.293635567324782,-0.005903244279343543,0.09436318740360151,0.06680778830559155,4.5652735761584315,0.060716124154179485,0.2821920820822479,4.228529410068424,1.4492631579477007,7,60.0,firmware.thrust_ki,firmware,0.25,-0.5,-0.125,ground_impact,8.74,32.4458586935497,7.220625963804868,8.35459909594351,0.0,0.5396341463414634,0.0,0.09146341463414634
4.0,0,13.94,4,1.0,0,2.5628066435944823,1.7384398104853298,0.5246910996488395,4.365663748603767,-0.0054014341103666465,0.18600116850113532,0.065,4.7,0.06,0.3,4.0,1.4288992721907328,7,60.0,firmware.thrust_ki,firmware,0.25,-0.25,-0.0625,ground_impact,13.94,33.06091543094675,7.458994794099696,8.798091823711319,0.0,0.39579349904397704,0.0,0.0
4.0,1,23.68,6,1.5,0,2.8830023930518704,1.1459359371856084,0.772102645306442,4.613225291714513,-0.009402427916896463,0.2265398204949691,0.06577673839752203,4.570952355386659,0.0551469765634464,0.33000624819513635,3.9705706040793256,1.4182988268893335,7,60.0,firmware.thrust_ki,firmware,0.25,-0.25,-0.0625,ground_impact,23.68,35.895861832820714,7.508841459898369,8.482426838208793,0.0,0.4898395721925134,0.0,0.0
4.0,2,13.64,4,1.0,0,2.577454132241875,1.768914962527669,0.6166097082997348,4.489910687826765,-0.006366408093262782,0.1894726127533437,0.06428724157605824,4.1638551873761624,0.06636539174031647,0.3114338956812706,4.134814580815061,1.44120695245206,7,60.0,firmware.thrust_ki,firmware,0.25,-0.25,-0.0625,ground_impact,13.64,33.64783001904116,7.242941371062887,8.651514389011663,0.0,0.3984375,0.0,0.0
4.0,3,15.48,4,1.0,0,2.7935328752699804,1.5178161580791674,0.563805680927277,4.421763425157951,-0.009353286132565699,0.1996063245203067,0.06268446121923109,4.336350357380637,0.05515479194800862,0.2820106664684216,4.17178330111812,1.4246835883790174,7,60.0,firmware.thrust_ki,firmware,0.25,-0.25,-0.0625,ground_impact,15.48,33.52671535148223,6.7565315083841595,8.165567351174234,0.0,0.5077452667814114,0.0,0.0
4.0,4,13.48,4,1.0,0,2.6137627453508925,1.8007817743033288,0.6027340538850225,4.4737326554697,-0.0035610675697123895,0.18255871714326405,0.06381785595855352,4.180630719342732,0.059804869770326875,0.30111774343157194,3.8014708311273617,1.422012753510219,7,60.0,firmware.thrust_ki,firmware,0.25,-0.25,-0.0625,ground_impact,13.48,33.371533678444635,8.533905605372755,8.632477547848463,0.0,0.37549407114624506,0.0,0.0
4.0,5,14.56,4,1.0,0,2.4648958451883884,1.648698970202458,0.4660065804488743,4.283971598581813,-0.001685072316896916,0.18623466475720055,0.0624217189570092,4.63370430103694,0.06530633920429904,0.3086503437550528,3.8808036451019428,1.390010992718187,7,60.0,firmware.thrust_ki,firmware,0.25,-0.25,-0.0625,ground_impact,14.56,32.84271024800158,7.568589676380584,8.766674923580714,0.0,0.42778793418647165,0.0,0.0
4.0,6,14.4,4,1.0,0,2.5028972959623275,1.6764439158197961,0.614933258095733,4.475783765982181,-0.0014949158582805919,0.18851990067033053,0.06515637336675334,4.342580092232875,0.056498397403540186,0.2971682681197388,4.097035513386014,1.428497097086861,7,60.0,firmware.thrust_ki,firmware,0.25,-0.25,-0.0625,ground_impact,14.4,33.83900596506163,7.357447504584459,8.416994832205475,0.0,0.44731977818853974,0.0,0.0
4.0,7,12.08,3,0.75,0,2.841992877846348,1.9691331445862756,0.6158016582013308,4.492957411960054,-0.0037513169435206585,0.18142507143862435,0.06848455963844179,4.77649654918772,0.05932978830249504,0.3102436540079281,3.701137032373826,1.4134153665088793,7,60.0,firmware.thrust_ki,firmware,0.25,-0.25,-0.0625,ground_impact,12.08,33.07796925667354,9.13644087082172,9.019554836652025,0.0,0.40308370044052866,0.0,0.0
4.0,8,14.26,4,1.0,0,2.552901352198653,1.7055780989721563,0.4846162373260685,4.3073134753061675,-0.00933109123821267,0.18451199512166627,0.06372026305176655,4.744203806428032,0.06066278485949688,0.2990022401977588,3.930524520257145,1.4696048105776907,7,60.0,firmware.thrust_ki,firmware,0.25,-0.25,-0.0625,ground_impact,14.26,32.52546299904785,7.515839578956105,8.851080468200049,0.0,0.4093457943925234,0.0,0.0
4.0,9,16.1,5,1.25,0,3.005629343481788,1.4248360449684672,0.5483633857733945,4.3961671318178865,-0.0066113221631022775,0.20219236374982058,0.06338676526046816,4.647285473614353,0.060382690645530375,0.31000871341251496,3.9854069611494864,1.4516963615488432,7,60.0,firmware.thrust_ki,firmware,0.25,-0.25,-0.0625,ground_impact,16.1,33.43709349541131,7.216685654587299,8.008568667539663,0.0,0.5331125827814569,0.0,0.0
4.0,10,21.22,5,1.25,0,3.042690838257782,1.317200110516919,0.906668294380361,4.779112543948655,-0.006448998373565188,0.21605291353993705,0.06627358933048151,3.9902737615486155,0.052649665041493834,0.32157783887484226,4.188552246593023,1.4280565011100315,7,60.0,firmware.thrust_ki,firmware,0.25,-0.25,-0.0625,ground_impact,21.22,36.537857663453806,7.239879740371007,8.776868246700023,0.0,0.44704433497536944,0.0,0.0
4.0,11,12.66,3,0.75,0,2.753583745554884,1.863334271133019,0.5821636597182279,4.454427853409083,-0.005817118791729095,0.18880174757449786,0.06592790622121616,4.548088603371248,0.06045684138226205,0.2898650662349152,4.103410585085613,1.4522301712184607,7,60.0,firmware.thrust_ki,firmware,0.25,-0.25,-0.0625,ground_impact,12.66,32.95477186476554,7.40477433410335,8.876226760627498,0.0,0.3873684210526316,0.0,0.0
4.0,12,12.18,3,0.75,0,2.860195918898562,1.9265868128685333,0.512798963658593,4.386851205312426,-0.009868547884735325,0.18723635193133475,0.06527407704739453,4.6863227333968975,0.06815294053044922,0.3030470791558441,3.95091798696667,1.4170355867813895,7,60.0,firmware.thrust_ki,firmware,0.25,-0.25,-0.0625,ground_impact,12.18,32.429050592897056,7.801664974920482,9.112043108182345,0.0,0.40919037199124725,0.0,0.0
