random_seed,requested_duration_s,fault,fault_activation_time_s,initial_altitude_m,altitude_at_activation_m,airspeed_at_activation_m_s,roll_at_activation_deg,pitch_at_activation_deg,waypoint_at_activation,failure_mode,time_to_failure_s,time_from_fault_to_failure_s,maximum_abs_roll_deg,maximum_abs_pitch_deg,maximum_abs_angle_of_attack_deg,stall_fraction,aileron_saturation_fraction,elevator_saturation_fraction,throttle_saturation_fraction,cruise_velocity_m_s,trial,completed_duration_s,waypoints_completed,laps_completed,success,cross_track_rmse_m,altitude_rmse_m,airspeed_rmse_m_s,mean_airspeed_m_s,minimum_altitude_m,mean_throttle,mass_kg,cla,cd0,thrust_max_n,initial_speed_m_s,initial_heading_rad
7,60.0,disabled_altitude_feedback,0.0,1.0,1.0,4.0,0.0,0.0,0,ground_impact,15.48,15.48,36.27828982394133,7.505238425694036,6.7235567445022495,0.0,0.5438898450946644,0.0,0.0,4.0,0,15.48,5,1.25,0,3.2730063973575922,2.4799779720542765,0.9088808286427509,4.780773794203486,-0.0007192128294628364,0.3109440968813377,0.065,4.7,0.06,0.3,4.0,1.4288992721907328
7,60.0,disabled_altitude_feedback,0.0,1.0,1.0,3.9705706040793256,0.0,0.0,0,ground_impact,23.3,23.3,37.036383479803916,7.554440841077911,7.192279134982983,0.0,0.5218340611353712,0.0,0.0,4.0,1,23.3,7,1.75,0,3.0259115379704773,2.3445850059103197,0.9877554624076437,4.844119354560178,-0.0009132334159999561,0.2754116654711292,0.06577673839752203,4.570952355386659,0.0551469765634464,0.33000624819513635,3.9705706040793256,1.4182988268893335
7,60.0,disabled_altitude_feedback,0.0,1.0,1.0,4.134814580815061,0.0,0.0,0,ground_impact,15.08,15.08,36.72390907621606,7.2999191056775885,6.6609599057812705,0.0,0.5388692579505301,0.0,0.0,4.0,2,15.08,5,1.25,0,3.3337518566041204,2.5250606270684828,0.9862138456757551,4.877173256094945,-0.005608285531957486,0.3130390558994451,0.06428724157605824,4.1638551873761624,0.06636539174031647,0.3114338956812706,4.134814580815061,1.44120695245206
7,60.0,disabled_altitude_feedback,0.0,1.0,1.0,4.17178330111812,0.0,0.0,0,ground_impact,15.620000000000001,15.620000000000001,36.3231179690407,6.813809208773722,6.769784267810268,0.0,0.5494880546075085,0.0,0.0,4.0,3,15.620000000000001,5,1.25,0,3.253150380038368,2.45237551124862,0.9125931632663974,4.788662178292212,-0.003812031595450513,0.3050479709677251,0.06268446121923109,4.336350357380637,0.05515479194800862,0.2820106664684216,4.17178330111812,1.4246835883790174
7,60.0,disabled_altitude_feedback,0.0,1.0,1.0,3.8014708311273617,0.0,0.0,0,ground_impact,15.58,15.58,36.7913082179707,8.562269565757473,6.67288222077538,0.0,0.5623931623931624,0.0,0.0,4.0,4,15.58,5,1.25,0,3.2679309656038527,2.423834873875229,1.004833039943655,4.8907748895654635,-0.0019418621146318872,0.30774750254785416,0.06381785595855352,4.180630719342732,0.059804869770326875,0.30111774343157194,3.8014708311273617,1.422012753510219
7,60.0,disabled_altitude_feedback,0.0,1.0,1.0,3.8808036451019428,0.0,0.0,0,ground_impact,16.080000000000002,16.080000000000002,35.93467817306891,7.6101923050410765,6.6930975092889655,0.0,0.5645695364238411,0.0,0.0,4.0,5,16.080000000000002,5,1.25,0,3.1527528841607295,2.414396287844101,0.8578862022719924,4.725943922180149,-0.0038276221858903415,0.3044501958998302,0.0624217189570092,4.63370430103694,0.06530633920429904,0.3086503437550528,3.8808036451019428,1.390010992718187
7,60.0,disabled_altitude_feedback,0.0,1.0,1.0,4.097035513386014,0.0,0.0,0,ground_impact,15.3,15.3,36.78932183166331,7.409173799296105,6.71103415539936,0.0,0.5522648083623694,0.0,0.0,4.0,6,15.3,5,1.25,0,3.287551692422369,2.4542153485088276,1.00266417344801,4.885358946693359,-0.0012191849261958638,0.30641228745335036,0.06515637336675334,4.342580092232875,0.056498397403540186,0.2971682681197388,4.097035513386014,1.428497097086861
7,60.0,disabled_altitude_feedback,0.0,1.0,1.0,3.701137032373826,0.0,0.0,0,ground_impact,15.16,15.16,36.811406411203244,9.15295034207727,6.652425099782531,0.0,0.5483304042179262,0.0,0.0,4.0,7,15.16,5,1.25,0,3.2749636953646393,2.486268733516819,1.0171172514025535,4.895922384539302,-0.005327978864144071,0.3188656827351436,0.06848455963844179,4.77649654918772,0.05932978830249504,0.3102436540079281,3.701137032373826,1.4134153665088793
7,60.0,disabled_altitude_feedback,0.0,1.0,1.0,3.930524520257145,0.0,0.0,0,ground_impact,15.860000000000001,15.860000000000001,36.078499616036794,7.558612920714721,6.727656419761073,0.0,0.5529411764705883,0.0,0.0,4.0,8,15.860000000000001,5,1.25,0,3.2210792404982755,2.448649156628108,0.8719132974591056,4.738391291216796,-0.0014666220331995966,0.3082219287061755,0.06372026305176655,4.744203806428032,0.06066278485949688,0.2990022401977588,3.930524520257145,1.4696048105776907
7,60.0,disabled_altitude_feedback,0.0,1.0,1.0,3.9854069611494864,0.0,0.0,0,ground_impact,16.22,16.22,36.27107946839481,7.266170899633993,6.725665391535008,0.0,0.5796387520525451,0.0,0.0,4.0,9,16.22,5,1.25,0,3.1848109504475595,2.3665058285253524,0.9231766195111306,4.789148187843363,-0.003249342269206509,0.29690247953425575,0.06338676526046816,4.647285473614353,0.060382690645530375,0.31000871341251496,3.9854069611494864,1.4516963615488432
7,60.0,disabled_altitude_feedback,0.0,1.0,1.0,4.188552246593023,0.0,0.0,0,ground_impact,22.0,22.0,37.62590582086938,7.295078334776155,7.157880968697485,0.0,0.5299647473560517,0.0,0.0,4.0,10,22.0,7,1.75,0,2.949104813253743,2.3982717374959206,1.1467013123621403,5.028414896399541,-0.006490206315866137,0.2794325455051416,0.06627358933048151,3.9902737615486155,0.052649665041493834,0.32157783887484226,4.188552246593023,1.4280565011100315
7,60.0,disabled_altitude_feedback,0.0,1.0,1.0,4.103410585085613,0.0,0.0,0,ground_impact,8.540000000000001,8.540000000000001,36.41451754612765,7.45451946328453,6.129505045372727,0.0,0.5607476635514018,0.0,0.0,4.0,11,8.540000000000001,3,0.75,0,2.448051584255825,2.5209394586743676,1.0704459262549617,4.971733731878352,-0.0014430153683701436,0.33113530067205393,0.06592790622121616,4.548088603371248,0.06045684138226205,0.2898650662349152,4.103410585085613,1.4522301712184607
7,60.0,disabled_altitude_feedback,0.0,1.0,1.0,3.95091798696667,0.0,0.0,0,ground_impact,8.66,8.66,36.05011092618235,7.843188227700427,6.1057218009910885,0.0,0.556923076923077,0.0,0.0,4.0,12,8.66,3,0.75,0,2.4420851864353907,2.52365768480907,1.0093231790796704,4.906665560196024,-0.003398529463406914,0.3340700831573505,0.06527407704739453,4.6863227333968975,0.06815294053044922,0.3030470791558441,3.95091798696667,1.4170355867813895
7,60.0,disabled_altitude_feedback,0.0,1.0,1.0,3.9447136158850062,0.0,0.0,0,ground_impact,23.94,23.94,36.25578050009952,7.231202271220482,7.284476709901789,0.0,0.5063291139240507,0.0,0.0,4.0,13,23.94,7,1.75,0,2.950596335751152,2.4035674589701266,0.8387436014835326,4.67323093635087,-0.005060740737196748,0.28301558581977154,0.06258078308375867,4.731953134052932,0.0507171319312291,0.29305038635192376,3.9447136158850062,1.4656254103938693
7,60.0,disabled_altitude_feedback,0.0,1.0,1.0,3.9624706899223114,0.0,0.0,0,ground_impact,14.92,14.92,36.6119865065701,8.064379289498191,6.666200562576687,0.0,0.5232142857142857,0.0,0.0,4.0,14,14.92,4,1.0,0,3.2726430764508896,2.5812442162291753,0.9678881001154335,4.857054466363071,-0.001616849111144402,0.3225148548080516,0.06492394526159549,4.2685017141274795,0.06515629612812958,0.30190902616838744,3.9624706899223114,1.4287107919669706
7,60.0,disabled_altitude_feedback,0.0,1.0,1.0,4.228529410068424,0.0,0.0,0,ground_impact,7.98,7.98,35.156465411451606,7.1583743875235175,6.2259825483887745,0.0,0.54,0.0,0.0,4.0,15,7.98,3,0.75,0,1.7469935609493794,2.5452163531879135,0.9489360942602811,4.866183918211976,-0.0030897661776462136,0.33452635606474,0.06680778830559155,4.5652735761584315,0.060716124154179485,0.2821920820822479,4.228529410068424,1.4492631579477007
7,60.0,disabled_altitude_feedback,10.0,1.0,4.130377329589705,4.696177206647061,-9.189331076042519,-7.019726441024796,3,none,,,39.73986152318581,7.976196314808993,7.538136206332611,0.0,0.4921846601235914,0.0,0.0,4.0,0,60.0,15,3.75,1,3.0182064746039443,0.7733192835522937,0.9614697025365545,4.791735564901668,0.5911661243906049,0.3336055004667338,0.065,4.7,0.06,0.3,4.0,1.4288992721907328
7,60.0,disabled_altitude_feedback,10.0,1.0,4.256329350815761,4.361335969555987,-9.49454563153399,-3.6948188700446227,3,none,,,39.46776264222874,7.752144540031353,7.658406493565013,0.0,0.4816430388949473,0.0,0.0,4.0,1,60.0,15,3.75,0,2.9986832341473746,0.9715114940539001,1.015804406482824,4.853231698704478,0.6045214616395227,0.28668506114524794,0.06577673839752203,4.570952355386659,0.0551469765634464,0.33000624819513635,3.9705706040793256,1.4182988268893335
7,60.0,disabled_altitude_feedback,10.0,1.0,4.168433572459942,4.643876964524316,-9.664140440275686,-6.294923828804298,3,none,,,40.0233478290044,7.882075789210476,7.4457349048099495,0.0,0.48782260996001453,0.0,0.0,4.0,2,60.0,15,3.75,0,3.089070891721292,0.8076764881193581,1.0336318244731393,4.890808582519034,0.5851647310955173,0.33337589525633365,0.06428724157605824,4.1638551873761624,0.06636539174031647,0.3114338956812706,4.134814580815061,1.44120695245206
7,60.0,disabled_altitude_feedback,10.0,1.0,4.138546276777429,4.637097644419257,-9.083462222664108,-6.923123852368363,3,none,,,39.69114811678939,7.963751423719701,7.5859368692270746,0.0,0.49182115594329334,0.0,0.0,4.0,3,60.0,15,3.75,1,3.010346330314898,0.7687467623171282,0.9502235714137388,4.786193858461336,0.6556757420872042,0.3278624587119522,0.06268446121923109,4.336350357380637,0.05515479194800862,0.2820106664684216,4.17178330111812,1.4246835883790174
7,60.0,disabled_altitude_feedback,10.0,1.0,4.268972546125714,4.601746387599423,-9.534664445232277,-6.165200888913112,3,none,,,40.024983910613216,8.405053527360748,7.527878097726721,0.0,0.48346055979643765,0.0,0.0,4.0,4,60.0,15,3.75,0,3.0065356509208967,0.7972197959286139,1.0209834515381324,4.871752029928053,0.48847785989019765,0.32400518045008536,0.06381785595855352,4.180630719342732,0.059804869770326875,0.30111774343157194,3.8014708311273617,1.422012753510219
7,60.0,disabled_altitude_feedback,10.0,1.0,4.170429568194549,4.594751995253629,-8.443784835706419,-6.777033548153188,3,none,,,39.44340628068969,7.531046574682115,7.523569647048071,0.0,0.4914576517629953,0.0,0.0,4.0,5,60.0,15,3.75,1,2.930039990532343,0.7332859103732716,0.8719718745696824,4.695800002496382,0.6012469912846412,0.3219332742009042,0.0624217189570092,4.63370430103694,0.06530633920429904,0.3086503437550528,3.8808036451019428,1.390010992718187
7,60.0,disabled_altitude_feedback,10.0,1.0,4.239435419464154,4.622307158016687,-9.872105291184315,-6.194068328609211,3,none,,,40.05174809051022,8.00405894490217,7.551453181020003,0.0,0.48237004725554344,0.0,0.0,4.0,6,60.0,15,3.75,0,3.0137473093767957,0.7906690754695296,1.039207854776504,4.885419576740305,0.5885657560305312,0.3270287696223085,0.06515637336675334,4.342580092232875,0.056498397403540186,0.2971682681197388,4.097035513386014,1.428497097086861
7,60.0,disabled_altitude_feedback,10.0,1.0,4.231720911738193,4.717971294585233,-10.203875541323457,-6.425659315351631,3,none,,,40.09347390606219,8.989504266503431,7.505437783586066,0.0,0.48237004725554344,0.0,0.0,4.0,7,60.0,15,3.75,0,3.0153437980095417,0.7959601013098615,1.067645298123133,4.90827650423007,0.4126258291236591,0.339145984261344,0.06848455963844179,4.77649654918772,0.05932978830249504,0.3102436540079281,3.701137032373826,1.4134153665088793
7,60.0,disabled_altitude_feedback,10.0,1.0,4.130831045816992,4.675256432105416,-8.767171257827966,-7.131304020256553,3,none,,,39.60014912749254,7.837305801517724,7.551729432522207,0.0,0.4914576517629953,0.0,0.0,4.0,8,60.0,15,3.75,1,2.9636494735373757,0.7444752220356616,0.9061387863747086,4.727974253977515,0.5946266772164173,0.32932881953303494,0.06372026305176655,4.744203806428032,0.06066278485949688,0.2990022401977588,3.930524520257145,1.4696048105776907
7,60.0,disabled_altitude_feedback,10.0,1.0,4.247592482734203,4.536382355572987,-8.805723384729953,-6.289322721186511,3,none,,,39.638961988574785,7.500550039658939,7.581972340757942,0.0,0.4921846601235914,0.0,0.0,4.0,9,60.0,15,3.75,1,2.97968886792626,0.7581373127450308,0.9142856932764212,4.737900497305959,0.6336866589842406,0.3124008621835244,0.06338676526046816,4.647285473614353,0.060382690645530375,0.31000871341251496,3.9854069611494864,1.4516963615488432
7,60.0,disabled_altitude_feedback,10.0,1.0,4.406127542119502,4.427137346657204,-10.262199769236185,-2.9688918695873903,3,none,,,40.294216480619426,7.614857681251412,7.6165203427525,0.0,0.4736459469283897,0.0,0.0,4.0,10,60.0,15,3.75,0,3.057707549207577,0.9465181137524695,1.1469432873302883,5.005724641013241,0.6138401500197758,0.2904859531712559,0.06627358933048151,3.9902737615486155,0.052649665041493834,0.32157783887484226,4.188552246593023,1.4280565011100315
7,60.0,disabled_altitude_feedback,10.0,1.0,3.9709883658494305,4.827753665279722,-9.564294269957026,-7.518110272178155,3,none,,,39.858711741279464,8.353274876323617,7.4785239560079155,0.0,0.48964013086150493,0.0,0.0,4.0,11,60.0,15,3.75,0,3.0674169404914147,0.8056089549033357,1.0219196279808476,4.866771490909178,0.5130785257450713,0.3547462635118218,0.06592790622121616,4.548088603371248,0.06045684138226205,0.2898650662349152,4.103410585085613,1.4522301712184607
7,60.0,disabled_altitude_feedback,10.0,1.0,3.9338598469375157,4.830398391923627,-8.966730698931265,-7.614717582316986,3,none,,,39.63843575461106,8.158229104456854,7.42666508370688,0.0,0.4921846601235914,0.0,0.0,4.0,12,60.0,15,3.75,1,3.0249844211784453,0.7886681641703415,0.9646046768470746,4.803204014812189,0.5249384013771665,0.3550961589118477,0.06527407704739453,4.6863227333968975,0.06815294053044922,0.3030470791558441,3.95091798696667,1.4170355867813895
7,60.0,disabled_altitude_feedback,10.0,1.0,4.229310525319546,4.492020355970363,-8.517568555036043,-6.23473568099247,3,none,,,39.322653303424666,7.504166147795761,7.704625277004586,0.0,0.4925481643038895,0.0,0.0,4.0,13,60.0,15,3.75,1,2.92710975027042,0.7076101171530079,0.8765322988785701,4.6874535616263495,0.6450397470428982,0.30080145585754553,0.06258078308375867,4.731953134052932,0.0507171319312291,0.29305038635192376,3.9447136158850062,1.4656254103938693
7,60.0,disabled_altitude_feedback,10.0,1.0,4.072379363813345,4.744114770818636,-9.67873780706757,-6.939973868202466,3,none,,,39.97547998910809,8.101616090243482,7.437209639920402,0.0,0.48854961832061067,0.0,0.0,4.0,14,60.0,15,3.75,0,3.0862436108608304,0.8004710100146989,1.0362367459575939,4.8918006110216385,0.5121385147030493,0.34607729767291523,0.06492394526159549,4.2685017141274795,0.06515629612812958,0.30190902616838744,3.9624706899223114,1.4287107919669706
7,60.0,disabled_altitude_feedback,10.0,1.0,3.824754024604096,4.919867086926021,-9.746514052827777,-7.91422620552491,3,none,,,39.85958853047446,8.632021550809343,7.4404294305539596,0.0,0.48854961832061067,0.0,0.0,4.0,15,60.0,15,3.75,0,3.0840764998535852,0.8421897168460935,1.0483833248416814,4.897287035047291,0.4698248879382497,0.37297355143889166,0.06680778830559155,4.5652735761584315,0.060716124154179485,0.2821920820822479,4.228529410068424,1.4492631579477007
7,60.0,disabled_altitude_feedback,20.0,1.0,2.470640446686991,4.488051928045187,-5.19498139863634,0.048423986453452944,1,none,,,39.73986152318581,7.976196314808993,7.537932619022044,0.0,0.4965467102871683,0.0,0.0,4.0,0,60.0,15,3.75,1,3.0109490308867826,1.1907616402657142,0.9339300093293661,4.765890709216814,0.41182425156006935,0.3243001579709451,0.065,4.7,0.06,0.3,4.0,1.4288992721907328
7,60.0,disabled_altitude_feedback,20.0,1.0,2.701299396044794,4.690559168324935,-6.560432968296775,-1.8983480360701335,2,none,,,39.46776264222874,7.752144540031353,7.657846590543757,0.0,0.48346055979643765,0.0,0.0,4.0,1,60.0,15,3.75,0,2.998281513912072,0.7025015520792136,1.0192925924270304,4.857970873064716,0.6045214616395227,0.28967408446250376,0.06577673839752203,4.570952355386659,0.0551469765634464,0.33000624819513635,3.9705706040793256,1.4182988268893335
7,60.0,disabled_altitude_feedback,20.0,1.0,2.515648831793557,4.644077280276682,-5.26649453008441,-0.7440580535859465,1,none,,,40.0233478290044,7.882075789210476,7.445826593676967,0.0,0.49036713922210107,0.0,0.0,4.0,2,60.0,15,3.75,0,3.0826988915913556,1.1070063252722508,1.0160538298972666,4.875124929497044,0.536940938192341,0.3269953364201356,0.06428724157605824,4.1638551873761624,0.06636539174031647,0.3114338956812706,4.134814580815061,1.44120695245206
7,60.0,disabled_altitude_feedback,20.0,1.0,2.4564015303184576,4.502163966347964,-5.223160996262651,0.028480820686565458,1,none,,,39.69114811678939,7.963751423719701,7.585604394455936,0.0,0.4954561977462741,0.0,0.0,4.0,3,60.0,15,3.75,1,3.002756688710842,1.1944193839173205,0.9234139400352964,4.761135259663122,0.41216719132198537,0.3183781847402394,0.06268446121923109,4.336350357380637,0.05515479194800862,0.2820106664684216,4.17178330111812,1.4246835883790174
7,60.0,disabled_altitude_feedback,20.0,1.0,2.482415290766722,4.621301765485422,-5.28553042086439,-0.5729735456767235,1,none,,,40.024983910613216,8.405053527360748,7.527748551452961,0.0,0.4925481643038895,0.0,0.0,4.0,4,60.0,15,3.75,0,3.0683885042971393,1.1306903176487817,1.000980590197641,4.8536014863441705,0.48847785989019765,0.3170551713124938,0.06381785595855352,4.180630719342732,0.059804869770326875,0.30111774343157194,3.8014708311273617,1.422012753510219
7,60.0,disabled_altitude_feedback,20.0,1.0,2.47918643305319,4.416541843014049,-5.72773130182191,-0.02073319065275993,1,none,,,39.44340628068969,7.531046574682115,7.523959400625078,0.0,0.4961832061068702,0.0,0.0,4.0,5,60.0,15,3.75,1,2.926379413808324,1.1032608416089997,0.8460962287041862,4.67138559000766,0.585694109850458,0.31404311351792863,0.0624217189570092,4.63370430103694,0.06530633920429904,0.3086503437550528,3.8808036451019428,1.390010992718187
7,60.0,disabled_altitude_feedback,20.0,1.0,2.4860702567735253,4.6152892055242525,-5.185169779973918,-0.49841789539754305,1,none,,,40.05174809051022,8.00405894490217,7.5514528152637235,0.0,0.49073064340239914,0.0,0.0,4.0,6,60.0,15,3.75,0,3.0807412457302936,1.1469718959754895,1.018300406783271,4.8671631387188885,0.49174926429635085,0.319603955133069,0.06515637336675334,4.342580092232875,0.056498397403540186,0.2971682681197388,4.097035513386014,1.428497097086861
7,60.0,disabled_altitude_feedback,20.0,1.0,2.5793954719887235,4.620038710821273,-7.2325569965391985,-0.7303592858272505,1,none,,,40.09347390606219,8.989504266503431,7.505415494505171,0.0,0.4838240639767357,0.0,0.0,4.0,7,60.0,15,3.75,0,3.017260528321958,1.0715963878001817,1.0491113130185439,4.892274126136273,0.4126258291236591,0.3320778836199917,0.06848455963844179,4.77649654918772,0.05932978830249504,0.3102436540079281,3.701137032373826,1.4134153665088793
7,60.0,disabled_altitude_feedback,20.0,1.0,2.462632549846281,4.4164126632345955,-5.587436051680415,0.2423590029583048,1,none,,,39.60014912749254,7.837305801517724,7.551688506762683,0.0,0.49581970192657215,0.0,0.0,4.0,8,60.0,15,3.75,1,2.949785148792883,1.170161051837878,0.8753484091931254,4.698742362598016,0.4666364907112221,0.31967469147514865,0.06372026305176655,4.744203806428032,0.06066278485949688,0.2990022401977588,3.930524520257145,1.4696048105776907
7,60.0,disabled_altitude_feedback,20.0,1.0,2.4807542208222935,4.460962987846362,-5.557297628907281,-0.12848601903119208,1,none,,,39.638961988574785,7.500550039658939,7.582622645673208,0.0,0.49472918938567795,0.0,0.0,4.0,9,60.0,15,3.75,1,2.9719157216326164,1.0773289836561515,0.8904174960252859,4.7154179891259425,0.59500019447482,0.305784689307962,0.06338676526046816,4.647285473614353,0.060382690645530375,0.31000871341251496,3.9854069611494864,1.4516963615488432
7,60.0,disabled_altitude_feedback,20.0,1.0,2.7048389299642666,4.824153783009045,15.053516870197301,-2.1482219441341623,2,none,,,40.294216480619426,7.614857681251412,7.616314374917619,0.0,0.4743729552889858,0.0,0.0,4.0,10,60.0,15,3.75,0,3.06777970311829,0.7244202176279171,1.1497383713413032,5.00966283618238,0.6138401500197758,0.29289735040599635,0.06627358933048151,3.9902737615486155,0.052649665041493834,0.32157783887484226,4.188552246593023,1.4280565011100315
7,60.0,disabled_altitude_feedback,20.0,1.0,2.5090865643466445,4.53924392985924,-4.920611069927178,0.07039583822415686,1,none,,,39.858711741279464,8.353274876323617,7.478174300543292,0.0,0.4932751726644856,0.0,0.0,4.0,11,60.0,15,3.75,1,3.062549014256865,1.2798255838345094,0.9930800580707438,4.839218282862924,0.2709322004440788,0.3430889473924574,0.06592790622121616,4.548088603371248,0.06045684138226205,0.2898650662349152,4.103410585085613,1.4522301712184607
7,60.0,disabled_altitude_feedback,20.0,1.0,2.507687040728639,4.48810787520972,-5.198164124621093,0.05931062370297778,1,none,,,39.63843575461106,8.158229104456854,7.427312434771821,0.0,0.49581970192657215,0.0,0.0,4.0,12,60.0,15,3.75,1,3.0112528812796,1.238182778375817,0.934145943762531,4.774301568067027,0.3125035682360628,0.34425218429498833,0.06527407704739453,4.6863227333968975,0.06815294053044922,0.3030470791558441,3.95091798696667,1.4170355867813895
7,60.0,disabled_altitude_feedback,20.0,1.0,2.476769775870877,4.387846204514762,-5.702936792456588,0.2025936337730608,1,none,,,39.322653303424666,7.504166147795761,7.704434254039775,0.0,0.4965467102871683,0.0,0.0,4.0,13,60.0,15,3.75,1,2.9218854513126895,1.0298200808360787,0.8543508711491502,4.6665982159559825,0.6450397470428982,0.2944004631918393,0.06258078308375867,4.731953134052932,0.0507171319312291,0.29305038635192376,3.9447136158850062,1.4656254103938693
7,60.0,disabled_altitude_feedback,20.0,1.0,2.5116403191425625,4.6127633379523605,-5.173759067333792,-0.424924150392519,1,none,,,39.97547998910809,8.101616090243482,7.437016572083616,0.0,0.4914576517629953,0.0,0.0,4.0,14,60.0,15,3.75,0,3.084103181196433,1.1869548082919512,1.014027238976204,4.871261393607613,0.41153509032093005,0.33732388716363954,0.06492394526159549,4.2685017141274795,0.06515629612812958,0.30190902616838744,3.9624706899223114,1.4287107919669706
7,60.0,disabled_altitude_feedback,20.0,1.0,2.555716092798469,4.536495206402983,-4.814493777243906,0.23462211734783178,1,none,,,39.85958853047446,8.632021550809343,7.440197494425974,0.0,0.4914576517629953,0.0,0.0,4.0,15,60.0,15,3.75,0,3.0797235817280812,1.3597767101046396,1.0162701960884726,4.866658161049483,0.1559541603804797,0.3587384116086912,0.06680778830559155,4.5652735761584315,0.060716124154179485,0.2821920820822479,4.228529410068424,1.4492631579477007
7,60.0,disabled_altitude_feedback,30.0,1.0,3.506858842256035,4.16101354961954,17.444039363443288,2.3877639768469945,0,none,,,39.73986152318581,7.976196314808993,7.660930527967324,0.0,0.49727371864776443,0.0,0.0,4.0,0,60.0,15,3.75,1,3.0110220435467414,1.318415138163043,0.9489696427191747,4.763579728624764,0.1428784057133439,0.3207575893139679,0.065,4.7,0.06,0.3,4.0,1.4288992721907328
7,60.0,disabled_altitude_feedback,30.0,1.0,2.6639900031308605,4.599527275262069,25.76528693838974,4.3700120929458075,0,ground_impact,57.14,27.14,39.46776264222874,7.752144540031353,7.6801716759631065,0.0,0.495398773006135,0.0,0.0,4.0,1,57.14,15,3.75,0,2.934312528526064,1.4560834585416642,0.9924014203821998,4.815767013772563,-0.0035799923665027445,0.27665672954037207,0.06577673839752203,4.570952355386659,0.0551469765634464,0.33000624819513635,3.9705706040793256,1.4182988268893335
7,60.0,disabled_altitude_feedback,30.0,1.0,3.218418087728528,4.359600621970639,14.020034576429843,3.6785026310407503,0,ground_impact,57.54,27.54,40.0233478290044,7.882075789210476,7.606982990079524,0.0,0.4920091324200913,0.0,0.0,4.0,2,57.54,15,3.75,0,3.018554593631408,1.466363731067332,0.9946829735202161,4.837363201152222,-0.001108382282017385,0.3180516517026566,0.06428724157605824,4.1638551873761624,0.06636539174031647,0.3114338956812706,4.134814580815061,1.44120695245206
7,60.0,disabled_altitude_feedback,30.0,1.0,3.515611043224739,4.177024308894629,17.567092694675825,2.3093528324249797,0,none,,,39.69114811678939,7.963751423719701,7.701504736441167,0.0,0.4965467102871683,0.0,0.0,4.0,3,60.0,15,3.75,1,3.012598779490933,1.312540542897789,0.9387756924888488,4.759837704064342,0.1583917771296388,0.3148950530021285,0.06268446121923109,4.336350357380637,0.05515479194800862,0.2820106664684216,4.17178330111812,1.4246835883790174
7,60.0,disabled_altitude_feedback,30.0,1.0,3.3023467977027994,4.3315022636871445,14.115535162460356,3.5036501736456116,0,ground_impact,58.0,28.0,40.024983910613216,8.405053527360748,7.664073716638518,0.0,0.4952847981893625,0.0,0.0,4.0,4,58.0,15,3.75,0,2.997914027911701,1.4373059874096215,0.985199596011682,4.820616215009515,-0.004208894021562981,0.30892865282483184,0.06381785595855352,4.180630719342732,0.059804869770326875,0.30111774343157194,3.8014708311273617,1.422012753510219
7,60.0,disabled_altitude_feedback,30.0,1.0,3.4124824836866736,4.047963627189729,11.314287886862417,2.482124797744897,0,none,,,39.44340628068969,7.531046574682115,7.6047088182600255,0.0,0.49691021446746636,0.0,0.0,4.0,5,60.0,15,3.75,1,2.927459976401327,1.276346513679368,0.8595155982774512,4.668993198645099,0.2571075769031417,0.3103585240154736,0.0624217189570092,4.63370430103694,0.06530633920429904,0.3086503437550528,3.8808036451019428,1.390010992718187
7,60.0,disabled_altitude_feedback,30.0,1.0,3.3453151920413293,4.361064467522913,13.9194684342814,3.6962217368641546,0,ground_impact,58.04,28.04,40.05174809051022,8.00405894490217,7.708833367513109,0.0,0.4967960799095364,0.0,0.0,4.0,6,58.04,15,3.75,0,3.0095955016148306,1.4148249636472778,1.005792638144996,4.836531543208136,-0.0005494091384196202,0.3118665537983315,0.06515637336675334,4.342580092232875,0.056498397403540186,0.2971682681197388,4.097035513386014,1.428497097086861
7,60.0,disabled_altitude_feedback,30.0,1.0,2.977677216538026,4.623401589086683,26.058615065669628,4.315754201195763,0,ground_impact,56.58,26.58,40.09347390606219,8.989504266503431,7.702922622443644,0.0,0.4945736434108527,0.0,0.0,4.0,7,56.58,15,3.75,0,2.969974872515647,1.4774315708316783,1.0309512617220722,4.8555980735400075,-0.001311022261861628,0.3218853639755656,0.06848455963844179,4.77649654918772,0.05932978830249504,0.3102436540079281,3.701137032373826,1.4134153665088793
7,60.0,disabled_altitude_feedback,30.0,1.0,3.5427966552597954,4.072277477438972,13.023779988221456,2.35187249329714,0,none,,,39.60014912749254,7.837305801517724,7.630353471148419,0.0,0.4965467102871683,0.0,0.0,4.0,8,60.0,15,3.75,1,2.9515663755568093,1.2161149165790002,0.894264208606216,4.7001560044723965,0.33377832242485994,0.3173854436670311,0.06372026305176655,4.744203806428032,0.06066278485949688,0.2990022401977588,3.930524520257145,1.4696048105776907
7,60.0,disabled_altitude_feedback,30.0,1.0,3.3950502862306706,4.075140194986041,15.7719308510648,2.5339636500704743,0,none,,,39.638961988574785,7.500550039658939,7.635946018056112,0.0,0.4954561977462741,0.0,0.0,4.0,9,60.0,15,3.75,1,2.969003911763871,1.342100829051909,0.9011647013970496,4.710146481625666,0.12177945929781372,0.3008672179811336,0.06338676526046816,4.647285473614353,0.060382690645530375,0.31000871341251496,3.9854069611494864,1.4516963615488432
7,60.0,disabled_altitude_feedback,30.0,1.0,2.4919872593583956,5.063778780067113,27.989852174284724,4.334353060929137,0,ground_impact,55.94,25.939999999999998,40.294216480619426,7.614857681251412,7.654112414405245,0.0,0.49843014128728413,0.0,0.0,4.0,10,55.94,15,3.75,0,3.042118282272956,1.4315213199759091,1.1339307249901986,4.983063712473385,-0.005011809084077598,0.2806678946878545,0.06627358933048151,3.9902737615486155,0.052649665041493834,0.32157783887484226,4.188552246593023,1.4280565011100315
7,60.0,disabled_altitude_feedback,30.0,1.0,3.482468605909553,4.310226804400568,15.720445432198499,2.8728040978489244,0,none,,,39.858711741279464,8.353274876323617,7.657205742262502,0.0,0.49472918938567795,0.0,0.0,4.0,11,60.0,15,3.75,0,3.070442258999898,1.374324086073518,1.0075559511061143,4.837804751144649,0.0416807647836554,0.3397817649197008,0.06592790622121616,4.548088603371248,0.06045684138226205,0.2898650662349152,4.103410585085613,1.4522301712184607
7,60.0,disabled_altitude_feedback,30.0,1.0,3.474788955061645,4.178432092370371,17.42214451174711,2.301034068575669,0,none,,,39.63843575461106,8.158229104456854,7.5897608418179034,0.0,0.49691021446746636,0.0,0.0,4.0,12,60.0,15,3.75,1,3.014201837769402,1.3482361420857363,0.9475982615749523,4.771620596304002,0.061962438910627374,0.3409695305040378,0.06527407704739453,4.6863227333968975,0.06815294053044922,0.3030470791558441,3.95091798696667,1.4170355867813895
7,60.0,disabled_altitude_feedback,30.0,1.0,3.4941146536996976,4.038704714080965,11.02289140897733,2.4670311236587943,0,none,,,39.322653303424666,7.504166147795761,7.705867980777228,0.0,0.4976372228280625,0.0,0.0,4.0,13,60.0,15,3.75,1,2.924863143908533,1.1880627748465327,0.870840675012926,4.6659740481409155,0.44685539609984265,0.29066335141280225,0.06258078308375867,4.731953134052932,0.0507171319312291,0.29305038635192376,3.9447136158850062,1.4656254103938693
7,60.0,disabled_altitude_feedback,30.0,1.0,3.3226353197727367,4.360204998427986,14.108064147752971,3.4420235101030134,0,ground_impact,57.92,27.92,39.97547998910809,8.101616090243482,7.620112461792473,0.0,0.49641103135625236,0.0,0.0,4.0,14,57.92,15,3.75,0,3.010486198858273,1.4203128787511796,0.9998992730915583,4.8408173535814765,-0.0005840185329498071,0.33010561219049384,0.06492394526159549,4.2685017141274795,0.06515629612812958,0.30190902616838744,3.9624706899223114,1.4287107919669706
7,60.0,disabled_altitude_feedback,30.0,1.0,3.465078157127802,4.372907596175345,14.47116404116708,2.9774515748720964,0,none,,,39.85958853047446,8.632021550809343,7.625291086873751,0.0,0.4925481643038895,0.0,0.0,4.0,15,60.0,15,3.75,0,3.0832033757956014,1.3832031481944924,1.0321091820563446,4.868458664249081,0.023966577221766348,0.35627267518345795,0.06680778830559155,4.5652735761584315,0.060716124154179485,0.2821920820822479,4.228529410068424,1.4492631579477007
7,60.0,disabled_altitude_feedback,40.0,1.0,2.901299091078539,5.096450170918435,31.21866625748134,0.3493102472995003,2,none,,,39.73986152318581,7.976196314808993,7.5142219474561465,0.0,0.4954561977462741,0.0,0.0,4.0,0,60.0,15,3.75,1,3.044731367931907,0.5814233569749898,0.994225307530147,4.814414780395663,0.5911661243906049,0.34051489789778555,0.065,4.7,0.06,0.3,4.0,1.4288992721907328
7,60.0,disabled_altitude_feedback,40.0,1.0,2.553631482150634,5.678443351877168,36.60852587974599,-0.23636060593243116,3,none,,,39.46776264222874,7.752144540031353,7.647532444152516,0.0,0.48455107233733186,0.0,0.0,4.0,1,60.0,15,3.75,0,3.008637027464268,0.5418493999719215,1.0441438087791957,4.872125746751208,0.6045214616395227,0.29419217472807385,0.06577673839752203,4.570952355386659,0.0551469765634464,0.33000624819513635,3.9705706040793256,1.4182988268893335
7,60.0,disabled_altitude_feedback,40.0,1.0,2.774112969232832,5.426976191649136,34.12842149848482,0.8775049711037765,3,none,,,40.0233478290044,7.882075789210476,7.517337303218888,0.0,0.49036713922210107,0.0,0.0,4.0,2,60.0,15,3.75,0,3.0983933409247117,0.5540643617451732,1.054268455521998,4.9044632179496315,0.5851647310955173,0.338657987595512,0.06428724157605824,4.1638551873761624,0.06636539174031647,0.3114338956812706,4.134814580815061,1.44120695245206
7,60.0,disabled_altitude_feedback,40.0,1.0,2.8953890280624752,5.098495797750787,31.21905550929025,0.2384969201040135,2,none,,,39.69114811678939,7.963751423719701,7.5567928661419215,0.0,0.4943656852053799,0.0,0.0,4.0,3,60.0,15,3.75,1,3.043005728232038,0.5901984316383525,0.9845322318243885,4.810388565153293,0.6556757420872042,0.3358310853276016,0.06268446121923109,4.336350357380637,0.05515479194800862,0.2820106664684216,4.17178330111812,1.4246835883790174
7,60.0,disabled_altitude_feedback,40.0,1.0,2.814518225732063,5.419948612610361,34.06152848553285,0.570024198200638,3,none,,,40.024983910613216,8.405053527360748,7.505360198675384,0.0,0.4910941475826972,0.0,0.0,4.0,4,60.0,15,3.75,0,3.085716731435936,0.5686489211587269,1.0464829239541662,4.888885463250887,0.48847785989019765,0.3307658462403697,0.06381785595855352,4.180630719342732,0.059804869770326875,0.30111774343157194,3.8014708311273617,1.422012753510219
7,60.0,disabled_altitude_feedback,40.0,1.0,2.9553472692264053,4.6297737447586185,22.49107187323773,1.047659185308042,2,none,,,39.44340628068969,7.531046574682115,7.6047088182600255,0.0,0.49581970192657215,0.0,0.0,4.0,5,60.0,15,3.75,1,2.952022460148539,0.5607769797515816,0.8887113395329523,4.702535554347833,0.6012469912846412,0.3238558198931092,0.0624217189570092,4.63370430103694,0.06530633920429904,0.3086503437550528,3.8808036451019428,1.390010992718187
7,60.0,disabled_altitude_feedback,40.0,1.0,2.789208569297282,5.576359749054787,35.05617565002392,0.1844706059289815,3,none,,,40.05174809051022,8.00405894490217,7.519248411383073,0.0,0.490003635041803,0.0,0.0,4.0,6,60.0,15,3.75,0,3.0989846663954483,0.6052950331620521,1.0718642492212382,4.908930478496067,0.5885657560305312,0.3356996323265612,0.06515637336675334,4.342580092232875,0.056498397403540186,0.2971682681197388,4.097035513386014,1.428497097086861
7,60.0,disabled_altitude_feedback,40.0,1.0,2.722035237421117,5.958594571686638,38.34124836264391,-1.3792532912579019,3,none,,,40.09347390606219,8.989504266503431,7.466323475830826,0.0,0.48455107233733186,0.0,0.0,4.0,7,60.0,15,3.75,0,3.0394658321581627,0.6293438280543552,1.1038822901869862,4.933336500343872,0.4126258291236591,0.3479043805875193,0.06848455963844179,4.77649654918772,0.05932978830249504,0.3102436540079281,3.701137032373826,1.4134153665088793
7,60.0,disabled_altitude_feedback,40.0,1.0,2.9470217988653573,4.778536519404204,24.299010368802648,0.4193695435596036,2,none,,,39.60014912749254,7.837305801517724,7.540414666271606,0.0,0.49581970192657215,0.0,0.0,4.0,8,60.0,15,3.75,1,2.9896758744008674,0.5544317042735599,0.9323489243330095,4.743354678173323,0.5946266772164173,0.3339857538636966,0.06372026305176655,4.744203806428032,0.06066278485949688,0.2990022401977588,3.930524520257145,1.4696048105776907
7,60.0,disabled_altitude_feedback,40.0,1.0,2.9226727001757573,4.772338050522083,26.200763894556854,1.0662956273057207,2,none,,,39.638961988574785,7.500550039658939,7.600033143311781,0.0,0.49691021446746636,0.0,0.0,4.0,9,60.0,15,3.75,1,2.9992849927359453,0.5609462365983681,0.9348988722805502,4.748566574104692,0.6336866589842406,0.31585108983718485,0.06338676526046816,4.647285473614353,0.060382690645530375,0.31000871341251496,3.9854069611494864,1.4516963615488432
7,60.0,disabled_altitude_feedback,40.0,1.0,2.7580649452436186,5.993873254768399,31.197122173408097,-2.8019532963531333,3,none,,,40.294216480619426,7.614857681251412,7.590253386104177,0.0,0.4758269720101781,0.0,0.0,4.0,10,60.0,15,3.75,0,3.0831504509980294,0.5781035001000338,1.1806885848086814,5.032058660118518,0.6138401500197758,0.3011512606317375,0.06627358933048151,3.9902737615486155,0.052649665041493834,0.32157783887484226,4.188552246593023,1.4280565011100315
7,60.0,disabled_altitude_feedback,40.0,1.0,2.8008089406636145,5.437761819319358,34.12592749585727,0.13682709399428944,3,none,,,39.858711741279464,8.353274876323617,7.435835869573955,0.0,0.49182115594329334,0.0,0.0,4.0,11,60.0,15,3.75,0,3.0933509009006044,0.6198624038461272,1.0567708802337925,4.891790450721742,0.5130785257450713,0.3629696480337963,0.06592790622121616,4.548088603371248,0.06045684138226205,0.2898650662349152,4.103410585085613,1.4522301712184607
7,60.0,disabled_altitude_feedback,40.0,1.0,2.90468647985272,5.091769609711927,31.281124438790645,0.49144059281109664,2,none,,,39.63843575461106,8.158229104456854,7.488212705927747,0.0,0.49472918938567795,0.0,0.0,4.0,12,60.0,15,3.75,1,3.047248864088826,0.5585981576052671,0.9912879513691816,4.821448518942924,0.5249384013771665,0.3606867208882405,0.06527407704739453,4.6863227333968975,0.06815294053044922,0.3030470791558441,3.95091798696667,1.4170355867813895
7,60.0,disabled_altitude_feedback,40.0,1.0,2.9351069016669347,4.679247990359669,22.417131737554406,0.5067650819976941,2,none,,,39.322653303424666,7.504166147795761,7.69470633985735,0.0,0.49581970192657215,0.0,0.0,4.0,13,60.0,15,3.75,1,2.952949282314529,0.5396708703162483,0.9054002321848459,4.704828415491646,0.6450397470428982,0.30592350474234287,0.06258078308375867,4.731953134052932,0.0507171319312291,0.29305038635192376,3.9447136158850062,1.4656254103938693
7,60.0,disabled_altitude_feedback,40.0,1.0,2.803614615197702,5.500189107927852,34.61307746166825,0.4671093856765686,3,none,,,39.97547998910809,8.101616090243482,7.442684550078159,0.0,0.49036713922210107,0.0,0.0,4.0,14,60.0,15,3.75,0,3.09982477745584,0.5665446100644431,1.0623355401256476,4.910147584358267,0.5121385147030493,0.3528431112390794,0.06492394526159549,4.2685017141274795,0.06515629612812958,0.30190902616838744,3.9624706899223114,1.4287107919669706
7,60.0,disabled_altitude_feedback,40.0,1.0,2.7406677817763807,5.566125880728447,34.79663610391778,0.0689335681203995,3,none,,,39.85958853047446,8.632021550809343,7.383990097074077,0.0,0.49036713922210107,0.0,0.0,4.0,15,60.0,15,3.75,0,3.1067424919503677,0.6381648733728046,1.083671847912091,4.923338056367768,0.4698248879382497,0.38119359623223453,0.06680778830559155,4.5652735761584315,0.060716124154179485,0.2821920820822479,4.228529410068424,1.4492631579477007
7,60.0,disabled_altitude_feedback,50.0,1.0,2.0153908025533136,5.340299099870844,33.97099605672775,1.2043089200348545,1,none,,,39.73986152318581,7.976196314808993,7.6599926136343575,0.0,0.4983642311886587,0.0,0.0,4.0,0,60.0,15,3.75,1,3.037513863165849,0.6998832064696225,0.9854251050586864,4.795284759795347,0.5911661243906049,0.3310840452095647,0.065,4.7,0.06,0.3,4.0,1.4288992721907328
7,60.0,disabled_altitude_feedback,50.0,1.0,2.346443304035471,5.482144395205357,10.411053160112228,-5.782455904236561,1,none,,,39.46776264222874,7.752144540031353,7.707478649928045,0.0,0.4856415848782261,0.0,0.0,4.0,1,60.0,15,3.75,0,3.008987560513528,0.552692786818639,1.0619413376758442,4.883538649572642,0.6045214616395227,0.2972322185763775,0.06577673839752203,4.570952355386659,0.0551469765634464,0.33000624819513635,3.9705706040793256,1.4182988268893335
7,60.0,disabled_altitude_feedback,50.0,1.0,1.906759895891941,5.718482767165181,33.68387167256721,-0.9192731888976408,1,none,,,40.0233478290044,7.882075789210476,7.634703347717653,0.0,0.49182115594329334,0.0,0.0,4.0,2,60.0,15,3.75,0,3.0986588052704027,0.61511326566762,1.0606422281605905,4.904550656747327,0.5851647310955173,0.3368361629488627,0.06428724157605824,4.1638551873761624,0.06636539174031647,0.3114338956812706,4.134814580815061,1.44120695245206
7,60.0,disabled_altitude_feedback,50.0,1.0,2.0405927027829183,5.297313611909897,33.75910460444244,1.304583487330105,1,none,,,39.69114811678939,7.963751423719701,7.63708033540496,0.0,0.4976372228280625,0.0,0.0,4.0,3,60.0,15,3.75,1,3.034521567478491,0.7098200145064085,0.9723262331736631,4.78791192878072,0.6556757420872042,0.32472506606689994,0.06268446121923109,4.336350357380637,0.05515479194800862,0.2820106664684216,4.17178330111812,1.4246835883790174
7,60.0,disabled_altitude_feedback,50.0,1.0,1.8972064084812095,5.642270890689116,35.48944455494831,-0.2130060914890775,1,none,,,40.024983910613216,8.405053527360748,7.656980516016797,0.0,0.4932751726644856,0.0,0.0,4.0,4,60.0,15,3.75,0,3.0864055515792526,0.6552295751850484,1.0467083294183952,4.881669566484979,0.48847785989019765,0.32555925495840515,0.06381785595855352,4.180630719342732,0.059804869770326875,0.30111774343157194,3.8014708311273617,1.422012753510219
7,60.0,disabled_altitude_feedback,50.0,1.0,2.212657068982879,5.1804548367515455,32.94548144893823,1.0276053280843271,1,none,,,39.44340628068969,7.531046574682115,7.6047088182600255,0.0,0.4976372228280625,0.0,0.0,4.0,5,60.0,15,3.75,1,2.9595536881592333,0.5904499007348422,0.9003776552298836,4.706697199350888,0.6012469912846412,0.323419234689645,0.0624217189570092,4.63370430103694,0.06530633920429904,0.3086503437550528,3.8808036451019428,1.390010992718187
7,60.0,disabled_altitude_feedback,50.0,1.0,1.8624011461885592,5.6049147281677145,32.76807208054814,-0.18416079542593555,1,none,,,40.05174809051022,8.00405894490217,7.606303031767555,0.0,0.49291166848418755,0.0,0.0,4.0,6,60.0,15,3.75,0,3.099416271547944,0.7010476975913122,1.063149872568684,4.892497582223918,0.5885657560305312,0.3264039484618969,0.06515637336675334,4.342580092232875,0.056498397403540186,0.2971682681197388,4.097035513386014,1.428497097086861
7,60.0,disabled_altitude_feedback,50.0,1.0,2.121183194322925,5.20829625834396,7.580685398656259,-4.801303534119654,1,none,,,40.09347390606219,8.989504266503431,7.574269044892189,0.0,0.48745910577971646,0.0,0.0,4.0,7,60.0,15,3.75,0,3.042697013680809,0.6618818159746307,1.093734721391024,4.917946905250636,0.4126258291236591,0.3399024377495383,0.06848455963844179,4.77649654918772,0.05932978830249504,0.3102436540079281,3.701137032373826,1.4134153665088793
7,60.0,disabled_altitude_feedback,50.0,1.0,2.1489638736194814,5.150478617373252,32.65484205475222,1.3477747514598195,1,none,,,39.60014912749254,7.837305801517724,7.67370227338341,0.0,0.49691021446746636,0.0,0.0,4.0,8,60.0,15,3.75,1,2.982250454798694,0.6600665968379839,0.9294455259616606,4.7301445195817315,0.5946266772164173,0.32716292214209325,0.06372026305176655,4.744203806428032,0.06066278485949688,0.2990022401977588,3.930524520257145,1.4696048105776907
7,60.0,disabled_altitude_feedback,50.0,1.0,2.1008350078534783,5.329717392990548,34.131910413401464,0.6359455515816387,1,none,,,39.638961988574785,7.500550039658939,7.671309342791528,0.0,0.49909123954925483,0.0,0.0,4.0,9,60.0,15,3.75,1,3.0020471041653676,0.6118025991240253,0.9453310193325062,4.750321025304288,0.6336866589842406,0.31437279964635223,0.06338676526046816,4.647285473614353,0.060382690645530375,0.31000871341251496,3.9854069611494864,1.4516963615488432
7,60.0,disabled_altitude_feedback,50.0,1.0,2.8611726102754784,4.591422054148434,-5.11338281952151,-5.357829049429459,1,none,,,40.294216480619426,7.614857681251412,7.66643287043686,0.0,0.4776444929116685,0.0,0.0,4.0,10,60.0,15,3.75,0,3.0867157148293356,0.5931368904029388,1.1851943002628114,5.032397414934478,0.6138401500197758,0.3002170335225286,0.06627358933048151,3.9902737615486155,0.052649665041493834,0.32157783887484226,4.188552246593023,1.4280565011100315
7,60.0,disabled_altitude_feedback,50.0,1.0,1.9517529585201352,5.439664121522033,35.02026487399771,1.280572425028974,1,none,,,39.858711741279464,8.353274876323617,7.51693151492542,0.0,0.4954561977462741,0.0,0.0,4.0,11,60.0,15,3.75,0,3.087755993519554,0.7465793680098579,1.0397811621887445,4.865537619863662,0.5130785257450713,0.3495884637454734,0.06592790622121616,4.548088603371248,0.06045684138226205,0.2898650662349152,4.103410585085613,1.4522301712184607
7,60.0,disabled_altitude_feedback,50.0,1.0,2.002262537954279,5.371607818857273,34.2747192605458,1.1277485441160366,1,none,,,39.63843575461106,8.158229104456854,7.626261175473554,0.0,0.4980007270083606,0.0,0.0,4.0,12,60.0,15,3.75,1,3.0434019750938663,0.6816964609549651,0.9845467432026079,4.805276239562194,0.5249384013771665,0.35253092719270956,0.06527407704739453,4.6863227333968975,0.06815294053044922,0.3030470791558441,3.95091798696667,1.4170355867813895
7,60.0,disabled_altitude_feedback,50.0,1.0,2.1879404718467517,5.105410667214677,32.00799508699328,1.2907105583808063,1,none,,,39.322653303424666,7.504166147795761,7.686472682996249,0.0,0.4983642311886587,0.0,0.0,4.0,13,60.0,15,3.75,1,2.9507131470092345,0.6266448832416999,0.9081703754913091,4.696978706648657,0.6450397470428982,0.30069811523681844,0.06258078308375867,4.731953134052932,0.0507171319312291,0.29305038635192376,3.9447136158850062,1.4656254103938693
7,60.0,disabled_altitude_feedback,50.0,1.0,1.862937232662926,5.627640696894921,33.85630142475875,-0.2033331896707136,1,none,,,39.97547998910809,8.101616090243482,7.602548281924936,0.0,0.4925481643038895,0.0,0.0,4.0,14,60.0,15,3.75,0,3.098526808508885,0.6688289062508842,1.0582460337271389,4.89902344509181,0.5121385147030493,0.3459719684595444,0.06492394526159549,4.2685017141274795,0.06515629612812958,0.30190902616838744,3.9624706899223114,1.4287107919669706
7,60.0,disabled_altitude_feedback,50.0,1.0,1.9520594515511225,5.461501004009443,33.73037683747073,1.1946214167838085,1,none,,,39.85958853047446,8.632021550809343,7.485605963236484,0.0,0.4940021810250818,0.0,0.0,4.0,15,60.0,15,3.75,0,3.1061005341529304,0.7666864335630946,1.062786126913436,4.894660385327649,0.4698248879382497,0.3656369762520788,0.06680778830559155,4.5652735761584315,0.060716124154179485,0.2821920820822479,4.228529410068424,1.4492631579477007
7,60.0,disabled_altitude_feedback,0.0,3.0,3.0,4.0,0.0,0.0,0,ground_impact,50.7,50.7,36.27828982394135,7.505238425694034,7.490117975135948,0.0,0.5021872265966754,0.0,0.0,4.0,0,50.7,13,3.25,0,3.0121846350450387,1.6022698979804382,0.8830720717877131,4.734905450063766,-0.0009184720598922214,0.312518005674947,0.065,4.7,0.06,0.3,4.0,1.4288992721907328
7,60.0,disabled_altitude_feedback,0.0,3.0,3.0,3.9705706040793256,0.0,0.0,0,ground_impact,58.2,58.2,37.03638347980391,7.554440841077912,7.658642352217399,0.0,0.4915445321307779,0.0,0.0,4.0,1,58.2,15,3.75,0,2.9735841342511358,1.5157810758859904,0.9484723142042416,4.79855686842079,-0.0017757563737501704,0.2764353652450802,0.06577673839752203,4.570952355386659,0.0551469765634464,0.33000624819513635,3.9705706040793256,1.4182988268893335
7,60.0,disabled_altitude_feedback,0.0,3.0,3.0,4.134814580815061,0.0,0.0,0,ground_impact,49.480000000000004,49.480000000000004,36.72390907621606,7.2999191056775885,7.390210905214024,0.0,0.4997752808988764,0.0,0.0,4.0,2,49.480000000000004,13,3.25,0,3.088719285749323,1.657168107222166,0.9562294594439257,4.831140873482422,-0.005218055902110961,0.3131469917427434,0.06428724157605824,4.1638551873761624,0.06636539174031647,0.3114338956812706,4.134814580815061,1.44120695245206
7,60.0,disabled_altitude_feedback,0.0,3.0,3.0,4.17178330111812,0.0,0.0,0,ground_impact,50.94,50.94,36.323117969040695,6.813809208773722,7.53029616137699,0.0,0.5030461270670148,0.0,0.0,4.0,3,50.94,13,3.25,0,3.007713151000851,1.5817451926145207,0.8791789684953818,4.735635975378351,-0.0017896297390838463,0.30652341861227655,0.06268446121923109,4.336350357380637,0.05515479194800862,0.2820106664684216,4.17178330111812,1.4246835883790174
7,60.0,disabled_altitude_feedback,0.0,3.0,3.0,3.8014708311273617,0.0,0.0,0,ground_impact,50.36,50.36,36.7913082179707,8.562269565757475,7.452349930544923,0.0,0.5081533715293081,0.0,0.0,4.0,4,50.36,13,3.25,0,3.068180542662146,1.5448855380253692,0.9563984680279598,4.825089227859721,-0.0023841061562502037,0.30551194495625966,0.06381785595855352,4.180630719342732,0.059804869770326875,0.30111774343157194,3.8014708311273617,1.422012753510219
7,60.0,disabled_altitude_feedback,0.0,3.0,3.0,3.8808036451019428,0.0,0.0,0,ground_impact,59.08,59.08,35.9346781730689,7.61019230504108,7.5236425930079625,0.0,0.4787430683918669,0.0,0.0,4.0,5,59.08,15,3.75,0,2.8841174797967577,1.6884198077354173,0.7910898223285382,4.633481533205794,-0.0019864053511500813,0.3039218158303059,0.0624217189570092,4.63370430103694,0.06530633920429904,0.3086503437550528,3.8808036451019428,1.390010992718187
7,60.0,disabled_altitude_feedback,0.0,3.0,3.0,4.097035513386014,0.0,0.0,0,ground_impact,49.92,49.92,36.78932183166334,7.409173799296105,7.487258779685503,0.0,0.5051179350244771,0.0,0.0,4.0,6,49.92,13,3.25,0,3.070290615981001,1.5829370059402543,0.9653691313226925,4.830602968771846,-0.0014991236739390588,0.3067836027740633,0.06515637336675334,4.342580092232875,0.056498397403540186,0.2971682681197388,4.097035513386014,1.428497097086861
7,60.0,disabled_altitude_feedback,0.0,3.0,3.0,3.701137032373826,0.0,0.0,0,ground_impact,49.6,49.6,36.811406411203244,9.15295034207727,7.447961390615087,0.0,0.5056028686687584,0.0,0.0,4.0,7,49.6,13,3.25,0,3.084518381279123,1.5980988361126853,0.9880703653848675,4.84860256817287,-7.138510551369e-05,0.31833649524724306,0.06848455963844179,4.77649654918772,0.05932978830249504,0.3102436540079281,3.701137032373826,1.4134153665088793
7,60.0,disabled_altitude_feedback,0.0,3.0,3.0,3.930524520257145,0.0,0.0,0,ground_impact,58.74,58.74,36.07849961603677,7.558612920714721,7.551732238210005,0.0,0.47619047619047616,0.0,0.0,4.0,8,58.74,15,3.75,0,2.9080315435959307,1.7327176998978824,0.8164258952148938,4.656425673728049,-0.0016601990806207638,0.3088949976904083,0.06372026305176655,4.744203806428032,0.06066278485949688,0.2990022401977588,3.930524520257145,1.4696048105776907
7,60.0,disabled_altitude_feedback,0.0,3.0,3.0,3.9854069611494864,0.0,0.0,0,ground_impact,58.9,58.9,36.2710794683948,7.266170899633993,7.581760861603749,0.0,0.4814540059347181,0.0,0.0,4.0,9,58.9,15,3.75,0,2.9070517504069358,1.6446110343998943,0.8311432301397282,4.673299093028064,-0.004796691941296336,0.2956505045667529,0.06338676526046816,4.647285473614353,0.060382690645530375,0.31000871341251496,3.9854069611494864,1.4516963615488432
7,60.0,disabled_altitude_feedback,0.0,3.0,3.0,4.188552246593023,0.0,0.0,0,ground_impact,55.76,55.76,37.625905820869356,7.295078334776155,7.6166203575495866,0.0,0.4931075226467113,0.0,0.0,4.0,10,55.76,15,3.75,0,3.0259109237591284,1.564833030646118,1.0934320901048846,4.968448833407905,-0.0018996103630677958,0.2790084004409576,0.06627358933048151,3.9902737615486155,0.052649665041493834,0.32157783887484226,4.188552246593023,1.4280565011100315
7,60.0,disabled_altitude_feedback,0.0,3.0,3.0,4.103410585085613,0.0,0.0,0,ground_impact,49.34,49.34,36.46691727678597,7.45451946328453,7.453804296087628,0.0,0.49368800721370604,0.0,0.0,4.0,11,49.34,12,3.0,0,3.052467598709256,1.7514025747513629,0.9267438665463995,4.789549635953694,-0.0025911621176540212,0.3282787636249138,0.06592790622121616,4.548088603371248,0.06045684138226205,0.2898650662349152,4.103410585085613,1.4522301712184607
7,60.0,disabled_altitude_feedback,0.0,3.0,3.0,3.95091798696667,0.0,0.0,0,ground_impact,49.800000000000004,49.800000000000004,36.149243136620534,7.843188227700427,7.405428591313635,0.0,0.4921909861668898,0.0,0.0,4.0,12,49.800000000000004,12,3.0,0,3.0358520418632744,1.7477516100781452,0.8705113297495772,4.729078023603605,-0.0002136935215420249,0.3302913170874565,0.06527407704739453,4.6863227333968975,0.06815294053044922,0.3030470791558441,3.95091798696667,1.4170355867813895
7,60.0,disabled_altitude_feedback,0.0,3.0,3.0,3.9447136158850062,0.0,0.0,0,none,,,36.25578050009952,7.231202271220482,7.70467362199405,0.0,0.4870956015994184,0.0,0.0,4.0,13,60.0,15,3.75,1,2.878689724902532,1.4749691265724956,0.8100750209877672,4.638947655519581,0.1443777756931764,0.28611856222214094,0.06258078308375867,4.731953134052932,0.0507171319312291,0.29305038635192376,3.9447136158850062,1.4656254103938693
7,60.0,disabled_altitude_feedback,0.0,3.0,3.0,3.9624706899223114,0.0,0.0,0,ground_impact,49.28,49.28,36.61198650657008,8.064379289498191,7.395147950828987,0.0,0.4961625282167043,0.0,0.0,4.0,14,49.28,13,3.25,0,3.093639916379967,1.7071258352986756,0.9505978916137026,4.823577512329861,-0.0035463064004043997,0.3229195212768734,0.06492394526159549,4.2685017141274795,0.06515629612812958,0.30190902616838744,3.9624706899223114,1.4287107919669706
7,60.0,disabled_altitude_feedback,0.0,3.0,3.0,4.228529410068424,0.0,0.0,0,ground_impact,41.78,41.78,36.55789007122765,7.158374387523515,7.437973677837927,0.0,0.508695652173913,0.0,0.0,4.0,15,41.78,11,2.75,0,2.9895825549294712,1.6784701437146532,0.9665227404880298,4.834210042643453,-0.0012391777484002582,0.3424928635413861,0.06680778830559155,4.5652735761584315,0.060716124154179485,0.2821920820822479,4.228529410068424,1.4492631579477007
7,60.0,disabled_altitude_feedback,10.0,3.0,2.7077689111799073,4.865544412722462,-2.142550106007405,-4.100279450904963,3,ground_impact,58.84,48.84,36.260546149542314,7.49699647721879,7.538793087369472,0.0,0.4864463423691051,0.0,0.0,4.0,0,58.84,15,3.75,0,2.9217181085681823,1.5587444119891884,0.8555848699310812,4.709123212479234,-0.0025227820615479294,0.3098105493833171,0.065,4.7,0.06,0.3,4.0,1.4288992721907328
7,60.0,disabled_altitude_feedback,10.0,3.0,2.8807352587714905,4.756511703664723,-5.46513543558006,-3.90479184678527,3,ground_impact,57.28,47.28,36.591348993626994,7.546234048441775,7.658199911708985,0.0,0.49292543021032503,0.0,0.0,4.0,1,57.28,15,3.75,0,2.919940577686928,1.5640476315889433,0.9313434028242339,4.788010801300357,-0.0024726414293698993,0.27140322701153347,0.06577673839752203,4.570952355386659,0.0551469765634464,0.33000624819513635,3.9705706040793256,1.4182988268893335
7,60.0,disabled_altitude_feedback,10.0,3.0,2.775086751113686,4.796639716459917,-4.883924825404136,-4.425843001029566,3,ground_impact,57.92,47.92,36.75941740672146,7.29167263864137,7.446371601376771,0.0,0.4896108802417832,0.0,0.0,4.0,2,57.92,15,3.75,0,2.9874559780854817,1.5276689116522844,0.9379630144292094,4.814582475678314,-0.004794310667375198,0.3116697276368574,0.06428724157605824,4.1638551873761624,0.06636539174031647,0.3114338956812706,4.134814580815061,1.44120695245206
7,60.0,disabled_altitude_feedback,10.0,3.0,2.639049975326929,4.870945626896187,-1.8496548439193128,-4.222588360704518,3,ground_impact,58.800000000000004,48.800000000000004,36.28704928571043,6.807825510185619,7.585695820226519,0.0,0.485321441843181,0.0,0.0,4.0,3,58.800000000000004,15,3.75,0,2.920238572623216,1.5674414887343855,0.8499226316035783,4.707975172307612,-0.0014610202241992628,0.3040651647720333,0.06268446121923109,4.336350357380637,0.05515479194800862,0.2820106664684216,4.17178330111812,1.4246835883790174
7,60.0,disabled_altitude_feedback,10.0,3.0,2.8874405609261142,4.754582205571208,-4.527267900936878,-4.169709170492013,3,ground_impact,57.9,47.9,36.615429935772596,8.551517968128435,7.5283069675080245,0.0,0.4871504157218443,0.0,0.0,4.0,4,57.9,15,3.75,0,2.975328936923192,1.56579646627576,0.9187262026488683,4.789172257785329,-3.319680821856248e-05,0.30086605869797467,0.06381785595855352,4.180630719342732,0.059804869770326875,0.30111774343157194,3.8014708311273617,1.422012753510219
7,60.0,disabled_altitude_feedback,10.0,3.0,2.612938135279972,4.877938018234747,0.7141022025980961,-3.6800254333105507,3,ground_impact,59.800000000000004,49.800000000000004,35.8011147494123,7.601282553709942,7.523548119074279,0.0,0.4877781831448377,0.0,0.0,4.0,5,59.800000000000004,15,3.75,0,2.871995291263458,1.572223746270093,0.7797783921832685,4.628239715040507,-0.003967646558266252,0.3007989441938486,0.0624217189570092,4.63370430103694,0.06530633920429904,0.3086503437550528,3.8808036451019428,1.390010992718187
7,60.0,disabled_altitude_feedback,10.0,3.0,2.819761838651227,4.795377571394221,-4.75708772726924,-4.398561430909621,3,ground_impact,57.92,47.92,36.7450471209243,7.4008282305205,7.55111531685024,0.0,0.4884775217227049,0.0,0.0,4.0,6,57.92,15,3.75,0,2.982536167984829,1.5442297796288855,0.9376029272394112,4.804413267035493,-0.0023989575180977532,0.3040395505074595,0.06515637336675334,4.342580092232875,0.056498397403540186,0.2971682681197388,4.097035513386014,1.428497097086861
7,60.0,disabled_altitude_feedback,10.0,3.0,3.0386918469770454,4.726565599447481,-5.62940819978344,-4.087419165844974,3,ground_impact,57.62,47.62,36.72581165072063,9.139180044325693,7.505295620778281,0.0,0.4905015197568389,0.0,0.0,4.0,7,57.62,15,3.75,0,2.9885512896525843,1.5449732124972964,0.9586282111230432,4.820750719367417,-0.0020734003902372856,0.31416641475793977,0.06848455963844179,4.77649654918772,0.05932978830249504,0.3102436540079281,3.701137032373826,1.4134153665088793
7,60.0,disabled_altitude_feedback,10.0,3.0,2.6219222921972385,4.900654441709901,0.17076377246079877,-3.8264054624652446,3,ground_impact,59.58,49.58,35.95468438445872,7.550234228084077,7.552227056452351,0.0,0.4868131868131868,0.0,0.0,4.0,8,59.58,15,3.75,0,2.8945967314180168,1.5698940746927723,0.8061136050407395,4.6528666431487435,-6.320951096754849e-05,0.3061655006492967,0.06372026305176655,4.744203806428032,0.06066278485949688,0.2990022401977588,3.930524520257145,1.4696048105776907
7,60.0,disabled_altitude_feedback,10.0,3.0,2.635133584737143,4.878436909649802,-0.9445074950617591,-3.9912136540632415,3,ground_impact,59.34,49.34,36.04659009042374,7.258310118284247,7.5817398847557955,0.0,0.48749080206033846,0.0,0.0,4.0,9,59.34,15,3.75,0,2.900919878399437,1.5748084981900963,0.81719612862498,4.665405848976682,-0.00406112612760965,0.29222883501807834,0.06338676526046816,4.647285473614353,0.060382690645530375,0.31000871341251496,3.9854069611494864,1.4516963615488432
7,60.0,disabled_altitude_feedback,10.0,3.0,3.017888326329529,4.696007855473191,-7.420562254054895,-3.466556758648191,3,ground_impact,55.800000000000004,45.800000000000004,37.36847345319574,7.287255229098109,7.616539128129936,0.0,0.49429358520267613,0.0,0.0,4.0,10,55.800000000000004,15,3.75,0,3.0094799072951472,1.5386555867739622,1.0784592420394525,4.958032372912293,-0.000218512904289897,0.274932430827535,0.06627358933048151,3.9902737615486155,0.052649665041493834,0.32157783887484226,4.188552246593023,1.4280565011100315
7,60.0,disabled_altitude_feedback,10.0,3.0,2.748674238842263,4.866546726876238,-3.7300106802292587,-4.421069618993635,3,ground_impact,58.36,48.36,36.60608162342594,7.446587196442676,7.477994108364325,0.0,0.4893218433870363,0.0,0.0,4.0,11,58.36,15,3.75,0,2.9582361887979625,1.5176558394046087,0.915748701755105,4.780869708935741,-0.005287176869124596,0.3282005077951261,0.06592790622121616,4.548088603371248,0.06045684138226205,0.2898650662349152,4.103410585085613,1.4522301712184607
7,60.0,disabled_altitude_feedback,10.0,3.0,2.7061084722431032,4.884792883819215,-1.9498776299863383,-4.088609571487248,3,ground_impact,58.82,48.82,36.255123364565826,7.834011130080722,7.427345242059187,0.0,0.48699851411589895,0.0,0.0,4.0,12,58.82,15,3.75,0,2.923917843247409,1.5365462045804885,0.8572358974453937,4.718168862398554,-0.003964673097720032,0.3294463237218901,0.06527407704739453,4.6863227333968975,0.06815294053044922,0.3030470791558441,3.95091798696667,1.4170355867813895
7,60.0,disabled_altitude_feedback,10.0,3.0,2.6307640860376256,4.89545189914078,0.05468562404982122,-3.676411983442887,3,none,,,35.816209842245826,7.223663580072885,7.704445591887833,0.0,0.490003635041803,0.0,0.0,4.0,13,60.0,15,3.75,1,2.880214384493675,1.5579184690948458,0.7901132662744053,4.6250606460015256,0.045727704644146536,0.28128549105212947,0.06258078308375867,4.731953134052932,0.0507171319312291,0.29305038635192376,3.9447136158850062,1.4656254103938693
7,60.0,disabled_altitude_feedback,10.0,3.0,2.8346811633564006,4.803663926249091,-4.643515664570026,-4.298031782715978,3,ground_impact,57.96,47.96,36.6981254040286,8.053852978721169,7.437141540788731,0.0,0.488486221215553,0.0,0.0,4.0,14,57.96,15,3.75,0,2.9819326743739363,1.5271664035846872,0.9346559715396726,4.809477490284187,-0.001724991139932722,0.321419536365235,0.06492394526159549,4.2685017141274795,0.06515629612812958,0.30190902616838744,3.9624706899223114,1.4287107919669706
7,60.0,disabled_altitude_feedback,10.0,3.0,2.7789323962737367,4.8642153841566245,-4.577034443350912,-4.7095770060964615,3,ground_impact,58.38,48.38,36.75467013167846,7.150638276395628,7.440216998488674,0.0,0.4936329588014981,0.0,0.0,4.0,15,58.38,15,3.75,0,2.9753005866777795,1.457578973328793,0.9462052541423748,4.814311914847666,-0.0037540052305083576,0.34477092168479734,0.06680778830559155,4.5652735761584315,0.060716124154179485,0.2821920820822479,4.228529410068424,1.4492631579477007
7,60.0,disabled_altitude_feedback,20.0,3.0,3.5144504654433333,4.220655464170275,-5.370424169415005,1.855570503744971,1,none,,,37.79587907930803,7.49699647721879,7.5384467675664855,0.0,0.4921846601235914,0.0,0.0,4.0,0,60.0,15,3.75,1,2.9656282117832697,1.1556542738963065,0.8933212593357128,4.7383330532114565,0.35060667199189327,0.31525012823070736,0.065,4.7,0.06,0.3,4.0,1.4288992721907328
7,60.0,disabled_altitude_feedback,20.0,3.0,3.395359647725383,4.276334158095011,-5.815501329227327,2.2412548319964367,1,ground_impact,57.9,37.9,38.42282134989025,7.546234048441775,7.658218431810062,0.0,0.5003779289493575,0.0,0.0,4.0,1,57.9,15,3.75,0,2.9277250502741485,1.4500855262453434,0.9553108423674755,4.8006505915701725,-0.0032403339542598944,0.27236311788914647,0.06577673839752203,4.570952355386659,0.0551469765634464,0.33000624819513635,3.9705706040793256,1.4182988268893335
