cruise_velocity_m_s,trial,completed_duration_s,waypoints_completed,laps_completed,success,cross_track_rmse_m,altitude_rmse_m,airspeed_rmse_m_s,mean_airspeed_m_s,minimum_altitude_m,mean_throttle,mass_kg,cla,cd0,thrust_max_n,initial_speed_m_s,initial_heading_rad,random_seed,requested_duration_s,screen_parameter,component,nominal_value,scale,applied_value,failure_mode,time_to_failure_s,maximum_abs_roll_deg,maximum_abs_pitch_deg,maximum_abs_angle_of_attack_deg,stall_fraction,aileron_saturation_fraction,elevator_saturation_fraction,throttle_saturation_fraction
4.0,0,1.22,1,0.25,0,0.7459758121467585,1.44994300636321,1.1670556078831702,4.825792974272934,-0.0537171296288881,0.43595836605088545,0.065,4.7,0.06,0.3,4.0,1.4288992721907328,7,60.0,airframe.alpha_stall,airframe,0.3490658503988659,0.1,0.03490658503988659,sustained_stall,0.0,3.5366782271297104,39.43816564453556,18.926783511861863,1.0,0.10869565217391304,0.0,0.0
4.0,1,1.2,1,0.25,0,0.6312422691595921,1.4384989411150677,1.1582461042826235,4.778048729222805,-0.032999539934893796,0.4367308276117042,0.06577673839752203,4.525026078250777,0.057254305433758694,0.29719603583055065,3.87867441408616,1.431125676117762,7,60.0,airframe.alpha_stall,airframe,0.3490658503988659,0.1,0.03490658503988659,sustained_stall,0.0,1.721198871814742,40.18131197385395,19.76017005489683,1.0,0.06521739130434782,0.0,0.0
4.0,2,1.24,1,0.25,0,0.7972877903574365,1.4595372885667226,1.1118839707125245,4.8156731097970935,-0.07398726852877682,0.4364106638971811,0.06428724157605824,4.838135458152227,0.04859266356119493,0.2622486043376923,4.159134793507912,1.386136756807275,7,60.0,airframe.alpha_stall,airframe,0.3490658503988659,0.1,0.03490658503988659,sustained_stall,0.0,2.9167862896145005,39.77149876047674,18.304523781114042,1.0,0.1276595744680851,0.0,0.0
4.0,3,1.22,1,0.25,0,0.6952289338743316,1.4380178516881204,1.1186748423289883,4.739607558132517,-0.026490188478432,0.4388387618621498,0.06268446121923109,4.800642136301137,0.052262773561290145,0.2919196065623004,3.8788697987002156,1.4315570676173444,7,60.0,airframe.alpha_stall,airframe,0.3490658503988659,0.1,0.03490658503988659,sustained_stall,0.0,2.607279660648519,39.5050620662128,19.456428853182175,1.0,0.08695652173913043,0.0,0.0
4.0,4,1.22,1,0.25,0,0.7488109069957419,1.4352457894184056,1.1434848643563837,4.802986916007213,-0.021863631258781782,0.43549162574664424,0.06381785595855352,4.729726818217408,0.048949589773249605,0.2992724858189839,3.995121744258172,1.4763311575159435,7,60.0,airframe.alpha_stall,airframe,0.3490658503988659,0.1,0.03490658503988659,sustained_stall,0.0,5.28858977914342,39.21518322419061,18.832803045320496,1.0,0.10869565217391304,0.0,0.0
4.0,5,1.24,1,0.25,0,0.8478156710299865,1.435099765286818,1.1381533195157145,4.839973191086879,-0.019173463414353664,0.4339236167882566,0.0624217189570092,4.437608011392286,0.058589453213551905,0.3016996347900496,4.132658480107476,1.3748937349146328,7,60.0,airframe.alpha_stall,airframe,0.3490658503988659,0.1,0.03490658503988659,sustained_stall,0.0,3.5855098656037714,38.37655437128151,17.928189017356065,1.0,0.14893617021276595,0.0,0.0
4.0,6,1.2,1,0.25,0,0.6395232181318239,1.4265115607115273,1.1116151631035707,4.7431829560673116,-0.0077843524640598405,0.4365255437748202,0.06515637336675334,4.691750986065357,0.052395321111337774,0.27704796351741906,3.9124599350885045,1.458897387071965,7,60.0,airframe.alpha_stall,airframe,0.3490658503988659,0.1,0.03490658503988659,sustained_stall,0.0,2.6734068385085603,40.443952148749894,19.660401796995213,1.0,0.06521739130434782,0.0,0.0
4.0,7,1.2,1,0.25,0,0.7012426262678142,1.4554236649768875,1.1937135753139259,4.844145038832962,-0.07029547867375363,0.43511905556030667,0.06848455963844179,4.896075500837238,0.06162758615293021,0.29283370085949106,3.9832447075623763,1.4330655136385633,7,60.0,airframe.alpha_stall,airframe,0.3490658503988659,0.1,0.03490658503988659,sustained_stall,0.0,2.730165655631428,40.44378572062538,19.428906542104663,1.0,0.08695652173913043,0.0,0.0
4.0,0,1.26,1,0.25,0,0.7775997630504836,1.4713873316261217,1.2673234713363233,4.893443984929204,-0.03599420850598921,0.438895969614201,0.065,4.7,0.06,0.3,4.0,1.4288992721907328,7,60.0,airframe.alpha_stall,airframe,0.3490658503988659,0.25,0.08726646259971647,sustained_stall,0.0,6.0306034223624865,36.7179404023965,18.71223467884853,0.9375,0.14583333333333334,0.0,0.0
4.0,1,1.24,1,0.25,0,0.7715515783603994,1.471180446087209,1.2657527797898338,4.85204344330918,-0.04576667654508111,0.4404439432769448,0.06577673839752203,4.525026078250777,0.057254305433758694,0.29719603583055065,3.87867441408616,1.431125676117762,7,60.0,airframe.alpha_stall,airframe,0.3490658503988659,0.25,0.08726646259971647,sustained_stall,0.0,4.984754595935783,37.662152074547336,19.55965800288659,0.9574468085106383,0.1276595744680851,0.0,0.0
4.0,2,1.28,1,0.25,0,0.8189711649227241,1.4729769225702158,1.202180461379142,4.874615141324287,-0.04507287001724766,0.43857870067023186,0.06428724157605824,4.838135458152227,0.04859266356119493,0.2622486043376923,4.159134793507912,1.386136756807275,7,60.0,airframe.alpha_stall,airframe,0.3490658503988659,0.25,0.08726646259971647,sustained_stall,0.0,5.4743391688146295,36.87933915125419,18.077717470509892,0.9387755102040817,0.16326530612244897,0.0,0.0
4.0,3,1.28,1,0.25,0,0.7646674880118036,1.496935551701128,1.2728833740445942,4.8465879007656225,-0.06766042995932595,0.44535712256050025,0.06268446121923109,4.800642136301137,0.052262773561290145,0.2919196065623004,3.8788697987002156,1.4315570676173444,7,60.0,airframe.alpha_stall,airframe,0.3490658503988659,0.25,0.08726646259971647,sustained_stall,0.0,6.218983226985669,36.87448395981755,19.257870003335285,0.8571428571428571,0.14285714285714285,0.0,0.0
4.0,4,1.28,1,0.25,0,0.8003370319673645,1.4924056621985318,1.28755061263602,4.903307042778225,-0.06725047104108814,0.4416217511159212,0.06381785595855352,4.729726818217408,0.048949589773249605,0.2992724858189839,3.995121744258172,1.4763311575159435,7,60.0,airframe.alpha_stall,airframe,0.3490658503988659,0.25,0.08726646259971647,sustained_stall,0.0,8.980479834964582,36.440854500162004,18.603839969648305,0.8979591836734694,0.16326530612244897,0.0,0.0
4.0,5,1.3,1,0.25,0,0.8745234253773646,1.4851398890090683,1.266482617420447,4.92982105537463,-0.05527402739256067,0.43932992718731667,0.0624217189570092,4.437608011392286,0.058589453213551905,0.3016996347900496,4.132658480107476,1.3748937349146328,7,60.0,airframe.alpha_stall,airframe,0.3490658503988659,0.25,0.08726646259971647,sustained_stall,0.0,7.535623819257978,35.535283917947545,17.67935347479248,0.9387755102040817,0.20408163265306123,0.0,0.0
4.0,6,1.24,1,0.25,0,0.7079536259355235,1.457030435486375,1.2158933700139611,4.813855376539425,-0.017462536883274593,0.440082288431261,0.06515637336675334,4.691750986065357,0.052395321111337774,0.27704796351741906,3.9124599350885045,1.458897387071965,7,60.0,airframe.alpha_stall,airframe,0.3490658503988659,0.25,0.08726646259971647,sustained_stall,0.0,4.817046098621141,37.851616819844544,19.463571711820087,0.9361702127659575,0.10638297872340426,0.0,0.0
4.0,7,1.24,1,0.25,0,0.751246451016089,1.4838016854045513,1.2891651682910839,4.90943700312207,-0.0726187135522012,0.4385440983661363,0.06848455963844179,4.896075500837238,0.06162758615293021,0.29283370085949106,3.9832447075623763,1.4330655136385633,7,60.0,airframe.alpha_stall,airframe,0.3490658503988659,0.25,0.08726646259971647,sustained_stall,0.0,5.074874048015597,37.76637947841638,19.23256508720568,0.9574468085106383,0.1276595744680851,0.0,0.0
4.0,0,60.0,16,4.0,0,3.163951356211474,0.6583393588999069,1.5856289826319148,5.416510697119138,1.1105635635439717,0.4537293251705952,0.065,4.7,0.06,0.3,4.0,1.4288992721907328,7,60.0,airframe.alpha_stall,airframe,0.3490658503988659,0.5,0.17453292519943295,none,,40.98045808779331,29.353060324670214,18.664217887762916,0.09487459105779716,0.4830970556161396,0.0,0.0
4.0,1,60.0,17,4.25,0,3.2375412939164785,0.6619143379534094,1.6527893657699915,5.49129588596442,0.679269667215441,0.45671480079143234,0.06577673839752203,4.525026078250777,0.057254305433758694,0.29719603583055065,3.87867441408616,1.431125676117762,7,60.0,airframe.alpha_stall,airframe,0.3490658503988659,0.5,0.17453292519943295,none,,42.06490109486434,29.467015530482612,18.399703302124074,0.09487459105779716,0.4860050890585242,0.0,0.0
4.0,2,60.0,16,4.0,0,3.086339518028835,0.6757348820346025,1.5811962086157694,5.390329222361047,1.2491339981860823,0.47522830200086136,0.06428724157605824,4.838135458152227,0.04859266356119493,0.2622486043376923,4.159134793507912,1.386136756807275,7,60.0,airframe.alpha_stall,airframe,0.3490658503988659,0.5,0.17453292519943295,none,,41.02794116392474,30.646206924870913,19.24689566459328,0.09596510359869138,0.47909850963286077,0.0,0.0
4.0,3,60.0,16,4.0,0,3.0490058951783245,0.6908414050549825,1.5288490704600401,5.32950493616835,0.9989402886660681,0.4219256937916742,0.06268446121923109,4.800642136301137,0.052262773561290145,0.2919196065623004,3.8788697987002156,1.4315570676173444,7,60.0,airframe.alpha_stall,airframe,0.3490658503988659,0.5,0.17453292519943295,none,,41.219207233883154,30.819897825724333,19.607839466341616,0.09560159941839332,0.47837150127226463,0.0,0.0
4.0,4,60.0,16,4.0,0,3.118642326725632,0.7053121151021351,1.6053433871507317,5.408781953561147,1.143776898835121,0.4103069801706481,0.06381785595855352,4.729726818217408,0.048949589773249605,0.2992724858189839,3.995121744258172,1.4763311575159435,7,60.0,airframe.alpha_stall,airframe,0.3490658503988659,0.5,0.17453292519943295,none,,40.77774109319336,31.237148373717947,19.619582939783463,0.10032715376226826,0.4816430388949473,0.0,0.0
4.0,5,60.0,16,4.0,0,3.074333108029663,0.6782281566943587,1.543367577769776,5.3609465008841255,1.2417308988412787,0.4312016486017572,0.0624217189570092,4.437608011392286,0.058589453213551905,0.3016996347900496,4.132658480107476,1.3748937349146328,7,60.0,airframe.alpha_stall,airframe,0.3490658503988659,0.5,0.17453292519943295,none,,41.38593216162306,29.831901529547366,18.907639557814925,0.09560159941839332,0.48127953471464924,0.0,0.0
4.0,6,60.0,16,4.0,0,3.195438636776807,0.6666710752151492,1.6123909386336028,5.438983173904058,0.7125454258875477,0.4678276559462448,0.06515637336675334,4.691750986065357,0.052395321111337774,0.27704796351741906,3.9124599350885045,1.458897387071965,7,60.0,airframe.alpha_stall,airframe,0.3490658503988659,0.5,0.17453292519943295,none,,41.486464393556176,30.007900729445943,18.806366050158136,0.09487459105779716,0.4827335514358415,0.0,0.0
4.0,7,60.0,17,4.25,0,3.2490902433793796,0.6389257296339937,1.6746082225726076,5.5234562813023125,0.7088835737095279,0.49729569736460694,0.06848455963844179,4.896075500837238,0.06162758615293021,0.29283370085949106,3.9832447075623763,1.4330655136385633,7,60.0,airframe.alpha_stall,airframe,0.3490658503988659,0.5,0.17453292519943295,none,,41.18612502698557,28.569156595590897,18.140068891646646,0.09305707015630679,0.48782260996001453,0.0,0.0
4.0,0,60.0,15,3.75,1,3.0068448427066494,0.4481802536073163,0.9438847367729405,4.777964581552997,1.8992020954175912,0.3305399637328825,0.065,4.7,0.06,0.3,4.0,1.4288992721907328,7,60.0,airframe.alpha_stall,airframe,0.3490658503988659,1.0,0.3490658503988659,none,,37.79587907930803,7.49699647721879,7.357452017552144,0.0,0.49909123954925483,0.0,0.0
4.0,1,60.0,15,3.75,0,3.0705344002906236,0.45864826716797313,1.0136774428048987,4.85820669286865,1.9059828945140058,0.3311179079012783,0.06577673839752203,4.525026078250777,0.057254305433758694,0.29719603583055065,3.87867441408616,1.431125676117762,7,60.0,airframe.alpha_stall,airframe,0.3490658503988659,1.0,0.3490658503988659,none,,38.06742668902228,8.244368228128117,7.309395767593158,0.0,0.49727371864776443,0.0,0.0
4.0,2,60.0,15,3.75,1,2.9384226908324633,0.44805876392724237,0.8897020663347105,4.709532952665534,1.9210518572752526,0.33960633791514955,0.06428724157605824,4.838135458152227,0.04859266356119493,0.2622486043376923,4.159134793507912,1.386136756807275,7,60.0,airframe.alpha_stall,airframe,0.3490658503988659,1.0,0.3490658503988659,none,,37.63523870731565,6.831394563074121,7.529556929382246,0.0,0.4980007270083606,0.0,0.0
4.0,3,60.0,15,3.75,1,2.899694699304444,0.43771133176689075,0.8546322451254151,4.661141562223837,1.9442306190988365,0.30429297901131086,0.06268446121923109,4.800642136301137,0.052262773561290145,0.2919196065623004,3.8788697987002156,1.4315570676173444,7,60.0,airframe.alpha_stall,airframe,0.3490658503988659,1.0,0.3490658503988659,none,,37.66131331401164,7.478799351438626,7.463591694651931,0.0,0.49691021446746636,0.0,0.0
4.0,4,60.0,15,3.75,1,2.9799784623075207,0.4587763827072465,0.9249603092008124,4.736292369510594,1.914091923342731,0.2941790428039513,0.06381785595855352,4.729726818217408,0.048949589773249605,0.2992724858189839,3.995121744258172,1.4763311575159435,7,60.0,airframe.alpha_stall,airframe,0.3490658503988659,1.0,0.3490658503988659,none,,37.97913964867333,7.159249954764257,7.471810220418158,0.0,0.4994547437295529,0.0,0.0
4.0,5,60.0,15,3.75,1,2.9771872949643265,0.44108283148156746,0.9093371034585986,4.7399359507992465,1.9252649050523833,0.31044876332012233,0.0624217189570092,4.437608011392286,0.058589453213551905,0.3016996347900496,4.132658480107476,1.3748937349146328,7,60.0,airframe.alpha_stall,airframe,0.3490658503988659,1.0,0.3490658503988659,none,,37.65529526866587,6.762247023766198,7.444125474759775,0.0,0.49727371864776443,0.0,0.0
4.0,6,60.0,15,3.75,1,3.0181503025789485,0.4522864993194095,0.9533672548942019,4.7855646531935845,1.912201033741611,0.3370580452590118,0.06515637336675334,4.691750986065357,0.052395321111337774,0.27704796351741906,3.9124599350885045,1.458897387071965,7,60.0,airframe.alpha_stall,airframe,0.3490658503988659,1.0,0.3490658503988659,none,,37.870142531681914,7.965702572659912,7.432685020751413,0.0,0.49872773536895676,0.0,0.0
4.0,7,60.0,15,3.75,0,3.0752403276043907,0.45586075325259934,1.017209965317559,4.865018791401724,1.9388202517927824,0.36455841991419596,0.06848455963844179,4.896075500837238,0.06162758615293021,0.29283370085949106,3.9832447075623763,1.4330655136385633,7,60.0,airframe.alpha_stall,airframe,0.3490658503988659,1.0,0.3490658503988659,none,,37.73960214353495,8.034263563088361,7.172712365018874,0.0,0.49727371864776443,0.0,0.0
4.0,0,60.0,15,3.75,1,3.003122408486081,0.44725597192606664,0.9378530097221418,4.771677181223895,1.8978382518129535,0.32854597618979076,0.065,4.7,0.06,0.3,4.0,1.4288992721907328,7,60.0,airframe.alpha_stall,airframe,0.3490658503988659,1.5,0.5235987755982988,none,,37.756798503539144,7.460351400782344,7.333545881143897,0.0,0.49909123954925483,0.0,0.0
4.0,1,60.0,15,3.75,0,3.075363751121981,0.45875010725453647,1.0074093831405089,4.851269418139715,1.9037658805810322,0.32895814899787296,0.06577673839752203,4.525026078250777,0.057254305433758694,0.29719603583055065,3.87867441408616,1.431125676117762,7,60.0,airframe.alpha_stall,airframe,0.3490658503988659,1.5,0.5235987755982988,none,,38.034053105663595,8.196066086312896,7.284032613395413,0.0,0.4976372228280625,0.0,0.0
4.0,2,60.0,15,3.75,1,2.932727412184501,0.4478668746872544,0.8832739307927273,4.70243472506655,1.920921014637711,0.3371917984987756,0.06428724157605824,4.838135458152227,0.04859266356119493,0.2622486043376923,4.159134793507912,1.386136756807275,7,60.0,airframe.alpha_stall,airframe,0.3490658503988659,1.5,0.5235987755982988,none,,37.58848414516204,6.808541377313722,7.492595326227985,0.0,0.49872773536895676,0.0,0.0
4.0,3,60.0,15,3.75,1,2.898539645565848,0.43647410838606554,0.8486293230028304,4.654975222279881,1.942647655748464,0.30230625868962446,0.06268446121923109,4.800642136301137,0.052262773561290145,0.2919196065623004,3.8788697987002156,1.4315570676173444,7,60.0,airframe.alpha_stall,airframe,0.3490658503988659,1.5,0.5235987755982988,none,,37.61993484232849,7.441019979320282,7.440484037318522,0.0,0.49691021446746636,0.0,0.0
4.0,4,60.0,15,3.75,1,2.9755430933443843,0.4576876882851755,0.9185504388546555,4.729661184197212,1.9104266795023812,0.29215497588965583,0.06381785595855352,4.729726818217408,0.048949589773249605,0.2992724858189839,3.995121744258172,1.4763311575159435,7,60.0,airframe.alpha_stall,airframe,0.3490658503988659,1.5,0.5235987755982988,none,,37.94001399356535,7.125332045743046,7.45217993287256,0.0,0.500181752090149,0.0,0.0
4.0,5,60.0,15,3.75,1,2.9690570535118286,0.4400145112215545,0.9030220812930511,4.733475520423602,1.9209850231326964,0.3084618946942569,0.0624217189570092,4.437608011392286,0.058589453213551905,0.3016996347900496,4.132658480107476,1.3748937349146328,7,60.0,airframe.alpha_stall,airframe,0.3490658503988659,1.5,0.5235987755982988,none,,37.61934396708479,6.746226450693943,7.432543221600474,0.0,0.49727371864776443,0.0,0.0
4.0,6,60.0,15,3.75,1,3.012635837507084,0.4532641480667075,0.9475900513202776,4.779410005238832,1.9115537088541243,0.33472572956173785,0.06515637336675334,4.691750986065357,0.052395321111337774,0.27704796351741906,3.9124599350885045,1.458897387071965,7,60.0,airframe.alpha_stall,airframe,0.3490658503988659,1.5,0.5235987755982988,none,,37.82806926311115,7.922206760576648,7.402472936373074,0.0,0.49872773536895676,0.0,0.0
4.0,7,60.0,15,3.75,0,3.074218844287305,0.45734240903301593,1.0113289917941093,4.85870942367577,1.9361062213179905,0.3622850373016244,0.06848455963844179,4.896075500837238,0.06162758615293021,0.29283370085949106,3.9832447075623763,1.4330655136385633,7,60.0,airframe.alpha_stall,airframe,0.3490658503988659,1.5,0.5235987755982988,none,,37.71188440087782,7.9922072317602435,7.188206314947435,0.0,0.4980007270083606,0.0,0.0
4.0,0,60.0,15,3.75,1,3.003030471916994,0.44724531777805104,0.9377527983952013,4.7715732083588644,1.89781333251802,0.3285095359842277,0.065,4.7,0.06,0.3,4.0,1.4288992721907328,7,60.0,airframe.alpha_stall,airframe,0.3490658503988659,2.0,0.6981317007977318,none,,37.756045282949586,7.459686324208066,7.333104268904036,0.0,0.49909123954925483,0.0,0.0
4.0,1,60.0,15,3.75,0,3.0752604234797607,0.45875196026388965,1.0072976409931163,4.851147922688486,1.9037711180584844,0.32891942099338606,0.06577673839752203,4.525026078250777,0.057254305433758694,0.29719603583055065,3.87867441408616,1.431125676117762,7,60.0,airframe.alpha_stall,airframe,0.3490658503988659,2.0,0.6981317007977318,none,,38.03334336624213,8.195192426931696,7.283489688255298,0.0,0.4976372228280625,0.0,0.0
4.0,2,60.0,15,3.75,1,2.9326226041122423,0.44790287198398976,0.8831775180743495,4.702321838342901,1.920897848015124,0.3371460632891801,0.06428724157605824,4.838135458152227,0.04859266356119493,0.2622486043376923,4.159134793507912,1.386136756807275,7,60.0,airframe.alpha_stall,airframe,0.3490658503988659,2.0,0.6981317007977318,none,,37.587776326001375,6.80818636889675,7.4919946823742665,0.0,0.49872773536895676,0.0,0.0
4.0,3,60.0,15,3.75,1,2.898474255256798,0.436445939336279,0.8485352846318776,4.654878613945181,1.9426491095901537,0.3022713555035159,0.06268446121923109,4.800642136301137,0.052262773561290145,0.2919196065623004,3.8788697987002156,1.4315570676173444,7,60.0,airframe.alpha_stall,airframe,0.3490658503988659,2.0,0.6981317007977318,none,,37.619040747722,7.4403347097875905,7.440014212008968,0.0,0.49691021446746636,0.0,0.0
4.0,4,60.0,15,3.75,1,2.973636718536041,0.45748305158711555,0.9175352253986186,4.72857643781008,1.9104102051360243,0.2920487318543075,0.06381785595855352,4.729726818217408,0.048949589773249605,0.2992724858189839,3.995121744258172,1.4763311575159435,7,60.0,airframe.alpha_stall,airframe,0.3490658503988659,2.0,0.6981317007977318,none,,37.939199644914616,7.124716059192232,7.451781925959173,0.0,0.49981824790985097,0.0,0.0
4.0,5,60.0,15,3.75,1,2.9689747591541975,0.4399874524239282,0.9029209468024745,4.733373994566933,1.92099029563325,0.3084270356454191,0.0624217189570092,4.437608011392286,0.058589453213551905,0.3016996347900496,4.132658480107476,1.3748937349146328,7,60.0,airframe.alpha_stall,airframe,0.3490658503988659,2.0,0.6981317007977318,none,,37.61851731543598,6.745860051095092,7.432023789401157,0.0,0.49727371864776443,0.0,0.0
4.0,6,60.0,15,3.75,1,3.012537238252216,0.45328720997903993,0.9474849261014661,4.779295710221349,1.9115436976840074,0.33468253758654554,0.06515637336675334,4.691750986065357,0.052395321111337774,0.27704796351741906,3.9124599350885045,1.458897387071965,7,60.0,airframe.alpha_stall,airframe,0.3490658503988659,2.0,0.6981317007977318,none,,37.82724769536839,7.921418870799544,7.40189336554775,0.0,0.49872773536895676,0.0,0.0
4.0,7,60.0,15,3.75,0,3.074128710725576,0.4573636092556082,1.0112254352183563,4.858598028421024,1.9361180536012634,0.36224370115172094,0.06848455963844179,4.896075500837238,0.06162758615293021,0.29283370085949106,3.9832447075623763,1.4330655136385633,7,60.0,airframe.alpha_stall,airframe,0.3490658503988659,2.0,0.6981317007977318,none,,37.7112239049803,7.991445015806484,7.18831823227781,0.0,0.4980007270083606,0.0,0.0
4.0,0,60.0,15,3.75,0,3.0426989169258696,0.6710742555947589,1.2181566546874918,4.973259240081874,1.8247693613663492,0.14565539740548683,0.065,4.7,0.0,0.3,4.0,1.4288992721907328,7,60.0,airframe.cd0,airframe,0.06,0.0,0.0,none,,40.54292896499117,8.369452696871365,9.096104818320532,0.0,0.4772809887313704,0.0,0.03816793893129771
4.0,1,60.0,16,4.0,0,3.0961011190246146,0.6689031677730145,1.284811007221534,5.0550117318329955,1.7685223779218262,0.1457740495312239,0.06577673839752203,4.525026078250777,0.0,0.29719603583055065,3.87867441408616,1.431125676117762,7,60.0,airframe.cd0,airframe,0.06,0.0,0.0,none,,40.3764086088002,8.262635146371256,8.783238507287518,0.0,0.47946201381315884,0.0,0.04398400581606689
4.0,2,60.0,15,3.75,0,2.994828928673649,0.625066163905456,1.0826191220803918,4.840986171190044,1.8289847057842503,0.176004924842943,0.06428724157605824,4.838135458152227,0.0,0.2622486043376923,4.159134793507912,1.386136756807275,7,60.0,airframe.cd0,airframe,0.06,0.0,0.0,none,,39.45704112386446,8.279890714388124,8.990162027160178,0.0,0.490003635041803,0.0,0.017811704834605598
4.0,3,60.0,15,3.75,0,3.0153822737510363,0.6675367173860611,1.1297725356086346,4.867801416215884,1.9158062020004505,0.1458751452591206,0.06268446121923109,4.800642136301137,0.0,0.2919196065623004,3.8788697987002156,1.4315570676173444,7,60.0,airframe.cd0,airframe,0.06,0.0,0.0,none,,40.47128159859443,8.271958071677304,9.16886822994102,0.0,0.48636859323882226,0.0,0.047619047619047616
4.0,4,60.0,15,3.75,0,3.039582883757122,0.6745054518897352,1.174018857334986,4.919181535233954,1.8981629649538925,0.14412069420122978,0.06381785595855352,4.729726818217408,0.0,0.2992724858189839,3.995121744258172,1.4763311575159435,7,60.0,airframe.cd0,airframe,0.06,0.0,0.0,none,,40.66930886707406,8.34260299516004,9.226245999689617,0.0,0.48237004725554344,0.0,0.04834605597964377
4.0,5,60.0,15,3.75,0,3.0141853275789705,0.6573959638990983,1.1849076144699136,4.933819219242144,1.9366108509621043,0.13509712475402463,0.0624217189570092,4.437608011392286,0.0,0.3016996347900496,4.132658480107476,1.3748937349146328,7,60.0,airframe.cd0,airframe,0.06,0.0,0.0,none,,40.84598699602074,8.322967410477693,9.201772566277763,0.0,0.4772809887313704,0.0,0.07742639040348964
4.0,6,60.0,15,3.75,0,3.0418205502640485,0.6569343361321551,1.173916104842512,4.940629424475097,1.7872656057993785,0.16283146386945016,0.06515637336675334,4.691750986065357,0.0,0.27704796351741906,3.9124599350885045,1.458897387071965,7,60.0,airframe.cd0,airframe,0.06,0.0,0.0,none,,39.91904541263617,8.27838604777874,9.050030406584597,0.0,0.4838240639767357,0.0,0.0341693929480189
4.0,7,60.0,15,3.75,0,3.0584818023163365,0.6737252954031051,1.2450869333899994,5.017712116952148,1.6995278887574083,0.16501539730179282,0.06848455963844179,4.896075500837238,0.0,0.29283370085949106,3.9832447075623763,1.4330655136385633,7,60.0,airframe.cd0,airframe,0.06,0.0,0.0,none,,39.995567757533365,8.430666264448583,8.98230606041345,0.0,0.48127953471464924,0.0,0.03707742639040349
4.0,0,60.0,15,3.75,0,3.010971391887141,0.5773511789658153,1.099374892222057,4.874723680235613,1.9427638847925695,0.2008158240028301,0.065,4.7,0.015,0.3,4.0,1.4288992721907328,7,60.0,airframe.cd0,airframe,0.06,0.25,0.015,none,,39.62826606305853,7.9388814322196755,8.502769284588512,0.0,0.48891312250090874,0.0,0.0
4.0,1,60.0,15,3.75,0,3.02601953543262,0.5822605122413675,1.1433013556129863,4.932823997766212,1.9205760884456973,0.20360415263991968,0.06577673839752203,4.525026078250777,0.015,0.29719603583055065,3.87867441408616,1.431125676117762,7,60.0,airframe.cd0,airframe,0.06,0.25,0.015,none,,39.45738386412419,7.877896194166296,8.282719993089831,0.0,0.48491457651763,0.0,0.0
4.0,2,60.0,15,3.75,0,2.9817699900737002,0.5337946795592353,1.0166664229679725,4.793698911845141,1.9832116871192405,0.2320136541279187,0.06428724157605824,4.838135458152227,0.015,0.2622486043376923,4.159134793507912,1.386136756807275,7,60.0,airframe.cd0,airframe,0.06,0.25,0.015,none,,38.756238053722726,7.742648918796743,8.272730332061293,0.0,0.495092693565976,0.0,0.0
4.0,3,60.0,15,3.75,0,2.977723963743671,0.5637995230692882,1.0182714000981872,4.773848791297942,1.9502396047230552,0.19884842400133998,0.06268446121923109,4.800642136301137,0.015,0.2919196065623004,3.8788697987002156,1.4315570676173444,7,60.0,airframe.cd0,airframe,0.06,0.25,0.015,none,,39.48698955927145,7.9995159796945225,8.629017265624256,0.0,0.495092693565976,0.0,0.0
4.0,4,60.0,15,3.75,0,3.0075800502139383,0.5744167810919109,1.0668221123946553,4.83347395825037,1.9209881188255373,0.19736766824192783,0.06381785595855352,4.729726818217408,0.015,0.2992724858189839,3.995121744258172,1.4763311575159435,7,60.0,airframe.cd0,airframe,0.06,0.25,0.015,none,,39.74535957489344,7.994973338789595,8.644075569808944,0.0,0.4914576517629953,0.0,0.0
4.0,5,60.0,15,3.75,0,2.9940814649343266,0.5685713699661449,1.0752130402676852,4.848914813199968,1.9187775879325741,0.18823714742349917,0.0624217189570092,4.437608011392286,0.015,0.3016996347900496,4.132658480107476,1.3748937349146328,7,60.0,airframe.cd0,airframe,0.06,0.25,0.015,none,,39.923732067051446,7.932852291973819,8.72211416417164,0.0,0.4881861141403126,0.0,0.0
4.0,6,60.0,15,3.75,0,3.013244952497473,0.5484198206051429,1.0800495058619874,4.865586495242907,2.0010383778622023,0.220527678924289,0.06515637336675334,4.691750986065357,0.015,0.27704796351741906,3.9124599350885045,1.458897387071965,7,60.0,airframe.cd0,airframe,0.06,0.25,0.015,none,,39.02693172842984,7.8585857743844,8.165059261974365,0.0,0.490003635041803,0.0,0.0
4.0,7,60.0,15,3.75,0,3.0340385119954365,0.5752424009642447,1.1496582069717987,4.936598962351714,1.9024197894790054,0.22219803117842535,0.06848455963844179,4.896075500837238,0.015,0.29283370085949106,3.9832447075623763,1.4330655136385633,7,60.0,airframe.cd0,airframe,0.06,0.25,0.015,none,,39.10459102142384,7.868472484652475,8.028322215360099,0.0,0.48636859323882226,0.0,0.0
4.0,0,60.0,15,3.75,0,3.0056923539702356,0.5171505985190274,1.0425821540317517,4.841085570012398,1.9185447835033742,0.24723840323718774,0.065,4.7,0.03,0.3,4.0,1.4288992721907328,7,60.0,airframe.cd0,airframe,0.06,0.5,0.03,none,,38.848015982345544,7.580140616491086,8.0764317823256,0.0,0.4932751726644856,0.0,0.0
4.0,1,60.0,15,3.75,0,3.02332647644245,0.5179033697320335,1.0888899292937078,4.902074417448246,1.946623101055851,0.2517787289544408,0.06577673839752203,4.525026078250777,0.03,0.29719603583055065,3.87867441408616,1.431125676117762,7,60.0,airframe.cd0,airframe,0.06,0.5,0.03,none,,38.808784696203624,7.882672886941322,7.926868878250114,0.0,0.48927662668120686,0.0,0.0
4.0,2,60.0,15,3.75,1,2.986453475855769,0.48507094572704984,0.9453972766204273,4.739948512355242,1.9422010726204708,0.28107778103996395,0.06428724157605824,4.838135458152227,0.03,0.2622486043376923,4.159134793507912,1.386136756807275,7,60.0,airframe.cd0,airframe,0.06,0.5,0.03,none,,38.100438888411745,7.348964931169096,7.926790383315278,0.0,0.49872773536895676,0.0,0.0
4.0,3,60.0,15,3.75,1,2.9491789818917584,0.5089176337762744,0.9506534325401559,4.726794147930045,1.936823041106808,0.24332542255872178,0.06268446121923109,4.800642136301137,0.03,0.2919196065623004,3.8788697987002156,1.4315570676173444,7,60.0,airframe.cd0,airframe,0.06,0.5,0.03,none,,38.66945669173378,7.639927675989352,8.182759584435743,0.0,0.4994547437295529,0.0,0.0
4.0,4,60.0,15,3.75,0,2.9910808318457605,0.5180477087779373,1.005751938134934,4.792987472097052,1.9077294697600227,0.24232235182311523,0.06381785595855352,4.729726818217408,0.03,0.2992724858189839,3.995121744258172,1.4763311575159435,7,60.0,airframe.cd0,airframe,0.06,0.5,0.03,none,,38.90507024980242,7.6360073883954565,8.1722691440495,0.0,0.4965467102871683,0.0,0.0
4.0,5,60.0,15,3.75,0,2.9877665409630785,0.5102492205109556,1.0153597099817855,4.810659928451281,1.9032971219709254,0.2332392476937333,0.0624217189570092,4.437608011392286,0.03,0.3016996347900496,4.132658480107476,1.3748937349146328,7,60.0,airframe.cd0,airframe,0.06,0.5,0.03,none,,39.10330700610848,7.614017713749302,8.163012527586693,0.0,0.4940021810250818,0.0,0.0
4.0,6,60.0,15,3.75,0,3.005078045248366,0.5093123877336201,1.025743662700587,4.832819826969179,1.9353626854961967,0.26927473087724996,0.06515637336675334,4.691750986065357,0.03,0.27704796351741906,3.9124599350885045,1.458897387071965,7,60.0,airframe.cd0,airframe,0.06,0.5,0.03,none,,38.40510506035927,7.660906287932513,7.982274274924022,0.0,0.4940021810250818,0.0,0.0
4.0,7,60.0,15,3.75,0,3.0281851586757096,0.522565898874084,1.0969991070166392,4.907946524797716,1.923806206465274,0.2708267167260571,0.06848455963844179,4.896075500837238,0.03,0.29283370085949106,3.9832447075623763,1.4330655136385633,7,60.0,airframe.cd0,airframe,0.06,0.5,0.03,none,,38.518087857534766,7.61737185582083,7.866150737374489,0.0,0.49073064340239914,0.0,0.0
4.0,0,60.0,15,3.75,1,3.0068448427066494,0.4481802536073163,0.9438847367729405,4.777964581552997,1.8992020954175912,0.3305399637328825,0.065,4.7,0.06,0.3,4.0,1.4288992721907328,7,60.0,airframe.cd0,airframe,0.06,1.0,0.06,none,,37.79587907930803,7.49699647721879,7.357452017552144,0.0,0.49909123954925483,0.0,0.0
4.0,1,60.0,15,3.75,0,3.0681879942220394,0.45346948969084844,1.0067611453139915,4.854754638738383,1.9142324905341328,0.33883361053438305,0.06577673839752203,4.525026078250777,0.06,0.29719603583055065,3.87867441408616,1.431125676117762,7,60.0,airframe.cd0,airframe,0.06,1.0,0.06,none,,37.95272261671835,8.281886253290073,7.250093124628587,0.0,0.49727371864776443,0.0,0.0
4.0,2,60.0,15,3.75,1,2.9189079869745673,0.40655588192672126,0.860500705919712,4.696812687475191,2.011213139055004,0.37507049305213935,0.06428724157605824,4.838135458152227,0.06,0.2622486043376923,4.159134793507912,1.386136756807275,7,60.0,airframe.cd0,airframe,0.06,1.0,0.06,none,,36.95967539126305,6.9777732889415,7.1960023400045205,0.0,0.4980007270083606,0.0,0.0
4.0,3,60.0,15,3.75,1,2.8962241280039174,0.42448762419744235,0.8327749667015739,4.649974343873224,1.9415407902425879,0.32509700725093515,0.06268446121923109,4.800642136301137,0.06,0.2919196065623004,3.8788697987002156,1.4315570676173444,7,60.0,airframe.cd0,airframe,0.06,1.0,0.06,none,,37.40727016757885,7.584999540615488,7.458894821265666,0.0,0.4943656852053799,0.0,0.0
4.0,4,60.0,15,3.75,1,2.953614221893669,0.44050839791814017,0.8934564204787194,4.719741384647267,1.9067758134970694,0.32404689516599006,0.06381785595855352,4.729726818217408,0.06,0.2992724858189839,3.995121744258172,1.4763311575159435,7,60.0,airframe.cd0,airframe,0.06,1.0,0.06,none,,37.66378529251977,7.313296418987322,7.452158666078834,0.0,0.49981824790985097,0.0,0.0
4.0,5,60.0,15,3.75,1,2.9713426932531237,0.43978537643358645,0.9056960506997853,4.738303006157933,1.920001919953707,0.314200977178737,0.0624217189570092,4.437608011392286,0.06,0.3016996347900496,4.132658480107476,1.3748937349146328,7,60.0,airframe.cd0,airframe,0.06,1.0,0.06,none,,37.6326746782938,6.759365567516208,7.450027282063567,0.0,0.49727371864776443,0.0,0.0
4.0,6,60.0,15,3.75,1,3.002692249484963,0.43463671354961564,0.9346689797183209,4.777403545779091,1.9417829169798604,0.3596287562331432,0.06515637336675334,4.691750986065357,0.06,0.27704796351741906,3.9124599350885045,1.458897387071965,7,60.0,airframe.cd0,airframe,0.06,1.0,0.06,none,,37.54136138604088,8.071875489644633,7.250707679544187,0.0,0.4976372228280625,0.0,0.0
4.0,7,60.0,15,3.75,0,3.0802043069585925,0.45836449339549296,1.02083010563154,4.866712350064076,1.9379321873407256,0.3599441102309576,0.06848455963844179,4.896075500837238,0.06,0.29283370085949106,3.9832447075623763,1.4330655136385633,7,60.0,airframe.cd0,airframe,0.06,1.0,0.06,none,,37.785811749288214,8.01177516066924,7.199060457680049,0.0,0.49727371864776443,0.0,0.0
4.0,0,60.0,15,3.75,1,2.9506933915685636,0.4586545960162871,0.8586775720493102,4.743673867967568,1.8778940526294041,0.4905164283688478,0.065,4.7,0.12,0.3,4.0,1.4288992721907328,7,60.0,airframe.cd0,airframe,0.06,2.0,0.12,none,,37.13136433065096,8.373961061660223,7.237277209393971,0.0,0.4961832061068702,0.0,0.0
4.0,1,60.0,15,3.75,1,3.033340615496356,0.4926742477886611,0.9409161320738966,4.831707758831776,1.8457803797255847,0.507320881002136,0.06577673839752203,4.525026078250777,0.12,0.29719603583055065,3.87867441408616,1.431125676117762,7,60.0,airframe.cd0,airframe,0.06,2.0,0.12,none,,37.616302936713645,9.132525408820383,7.2012746902188365,0.0,0.49581970192657215,0.0,0.0
4.0,2,60.0,15,3.75,1,2.9063261335265653,0.4998007025259431,0.8250280596169065,4.697232046377452,1.8055269483206269,0.5607240478869667,0.06428724157605824,4.838135458152227,0.12,0.2622486043376923,4.159134793507912,1.386136756807275,7,60.0,airframe.cd0,airframe,0.06,2.0,0.12,none,,37.51401784613857,7.9528809768325495,7.064034059518843,0.0,0.490003635041803,0.0,0.0
4.0,3,60.0,15,3.75,1,2.8427107304149457,0.4148004729979454,0.7416859219418461,4.615732023295234,1.906381156044302,0.4818914627949308,0.06268446121923109,4.800642136301137,0.12,0.2919196065623004,3.8788697987002156,1.4315570676173444,7,60.0,airframe.cd0,airframe,0.06,2.0,0.12,none,,36.29366131428756,8.460206069695191,7.155912118551149,0.0,0.4881861141403126,0.0,0.0
4.0,4,60.0,15,3.75,1,2.8816269756690702,0.4343586441518719,0.8037258624019744,4.684557934637093,1.8902062069527195,0.480495067803052,0.06381785595855352,4.729726818217408,0.12,0.2992724858189839,3.995121744258172,1.4763311575159435,7,60.0,airframe.cd0,airframe,0.06,2.0,0.12,none,,36.7344941750369,8.198758857074543,7.221182920911819,0.0,0.49581970192657215,0.0,0.0
4.0,5,60.0,15,3.75,1,2.9076444281696774,0.4202706562299714,0.8064421526356598,4.694425830622548,1.8809567815395418,0.46885581839846047,0.0624217189570092,4.437608011392286,0.12,0.3016996347900496,4.132658480107476,1.3748937349146328,7,60.0,airframe.cd0,airframe,0.06,2.0,0.12,none,,36.588389689259536,7.696993064610632,7.051146952704188,0.0,0.4940021810250818,0.0,0.0
4.0,6,60.0,15,3.75,1,2.969481819916386,0.5148795430228965,0.8965097669263645,4.7733529615470704,1.8119733940695661,0.5399932842671551,0.06515637336675334,4.691750986065357,0.12,0.27704796351741906,3.9124599350885045,1.458897387071965,7,60.0,airframe.cd0,airframe,0.06,2.0,0.12,none,,37.91720032419104,8.955431260664009,7.124000246232953,0.0,0.4932751726644856,0.0,0.0
4.0,7,60.0,15,3.75,1,3.064233964275734,0.5231943978678241,0.9852768189973387,4.863584789262058,1.786437098469309,0.5371502841621317,0.06848455963844179,4.896075500837238,0.12,0.29283370085949106,3.9832447075623763,1.4330655136385633,7,60.0,airframe.cd0,airframe,0.06,2.0,0.12,none,,38.173924500166486,8.861857111436759,7.111112936104016,0.0,0.49472918938567795,0.0,0.0
4.0,0,60.0,15,3.75,1,2.9580467608448164,0.7577526137233919,0.8346608153583744,4.754192598596122,1.0649031216646312,0.8071509253931676,0.065,4.7,0.24,0.3,4.0,1.4288992721907328,7,60.0,airframe.cd0,airframe,0.06,4.0,0.24,none,,37.218999763029224,10.312431796423526,6.948185826394976,0.0,0.48891312250090874,0.0,0.06761177753544166
4.0,1,60.0,15,3.75,1,3.021465569809508,0.7958580379399107,0.9049042578638136,4.832039202280547,0.9572049704335428,0.8341072651704745,0.06577673839752203,4.525026078250777,0.24,0.29719603583055065,3.87867441408616,1.431125676117762,7,60.0,airframe.cd0,airframe,0.06,4.0,0.24,none,,37.362100393997565,10.989318719074543,6.720625127823752,0.0,0.4940021810250818,0.0,0.09523809523809523
4.0,2,60.0,15,3.75,1,2.8692126718272024,0.923725717327112,0.7476388857664468,4.683315144059068,0.589963068538813,0.9103742428190076,0.06428724157605824,4.838135458152227,0.24,0.2622486043376923,4.159134793507912,1.386136756807275,7,60.0,airframe.cd0,airframe,0.06,4.0,0.24,none,,36.31380551656519,10.111455363729338,6.23326478244684,0.0,0.48091603053435117,0.0,0.24427480916030533
4.0,3,60.0,15,3.75,1,2.884872972611892,0.6820886801994772,0.7129457112337917,4.627969238239621,1.1523225020510843,0.7924102266272317,0.06268446121923109,4.800642136301137,0.24,0.2919196065623004,3.8788697987002156,1.4315570676173444,7,60.0,airframe.cd0,airframe,0.06,4.0,0.24,none,,36.87742149591741,10.383422426720408,6.7879288302208645,0.0,0.47619047619047616,0.0,0.04252998909487459
4.0,4,60.0,15,3.75,1,2.914053686352027,0.7154002741185481,0.7768974392514272,4.695074998286697,1.136423084890309,0.791115371054647,0.06381785595855352,4.729726818217408,0.24,0.2992724858189839,3.995121744258172,1.4763311575159435,7,60.0,airframe.cd0,airframe,0.06,4.0,0.24,none,,37.11617230280045,10.163748152836675,6.850394469500595,0.0,0.4841875681570338,0.0,0.039985459832788076
4.0,5,60.0,15,3.75,1,2.9233400371685736,0.6839647055274625,0.7752768335907338,4.7011811150651805,1.1175307248957886,0.776529164909379,0.0624217189570092,4.437608011392286,0.24,0.3016996347900496,4.132658480107476,1.3748937349146328,7,60.0,airframe.cd0,airframe,0.06,4.0,0.24,none,,37.16810620017161,9.812332582549306,6.818898467723393,0.0,0.4838240639767357,0.0,0.03380588876772083
4.0,6,60.0,15,3.75,1,2.949215540970685,0.8528093855195353,0.8336990173705691,4.762827817761891,0.7441645237162582,0.8800707694336175,0.06515637336675334,4.691750986065357,0.24,0.27704796351741906,3.9124599350885045,1.458897387071965,7,60.0,airframe.cd0,airframe,0.06,4.0,0.24,none,,36.99351377764605,10.881691353819516,6.48770056044758,0.0,0.48782260996001453,0.0,0.21046892039258452
4.0,7,60.0,15,3.75,1,3.0315527473211357,0.8505378139370185,0.9200600361997451,4.849491509515021,0.7393231295695373,0.867840196926454,0.06848455963844179,4.896075500837238,0.24,0.29283370085949106,3.9832447075623763,1.4330655136385633,7,60.0,airframe.cd0,airframe,0.06,4.0,0.24,none,,37.47618118211127,10.719602871927199,6.4460779691356676,0.0,0.4921846601235914,0.0,0.19447473645946928
4.0,0,60.0,17,4.25,0,4.802186749114506,0.5008544772534821,2.5677872693459842,6.523649984075437,0.6418416470733868,0.401909876807687,0.065,0.0,0.06,0.3,4.0,1.4288992721907328,7,60.0,airframe.cla,airframe,4.7,0.0,0.0,none,,44.84209613183229,23.30275569694647,9.022600650072151,0.0,0.5187204652853508,0.0,0.0
4.0,1,60.0,17,4.25,0,4.854557110459184,0.5158195240966886,2.614920549483671,6.569444256724538,0.42889587774130067,0.39794135368324723,0.06577673839752203,0.0,0.057254305433758694,0.29719603583055065,3.87867441408616,1.431125676117762,7,60.0,airframe.cla,airframe,4.7,0.0,0.0,none,,45.449039799612784,25.44090648241953,9.170275617910752,0.0,0.5223555070883316,0.0,0.0
4.0,2,60.0,17,4.25,0,4.703498275056038,0.4856248146457433,2.5260289676240433,6.481412514711826,0.8597714206399952,0.3915450633859307,0.06428724157605824,0.0,0.04859266356119493,0.2622486043376923,4.159134793507912,1.386136756807275,7,60.0,airframe.cla,airframe,4.7,0.0,0.0,none,,44.37052434143265,21.1595330224502,8.927964291954616,0.0,0.5158124318429662,0.0,0.0
4.0,3,60.0,17,4.25,0,4.571441288099874,0.4429262392667374,2.4346725589393237,6.391579094919566,0.7364515771189143,0.3580398581726298,0.06268446121923109,0.0,0.052262773561290145,0.2919196065623004,3.8788697987002156,1.4315570676173444,7,60.0,airframe.cla,airframe,4.7,0.0,0.0,none,,44.98013217296667,23.750866196450605,8.951502942348707,0.0,0.5212649945474372,0.0,0.0
4.0,4,60.0,17,4.25,0,4.667939880941039,0.453789684532101,2.5054136294423293,6.459780709147901,0.8347946595667843,0.3410267642095955,0.06381785595855352,0.0,0.048949589773249605,0.2992724858189839,3.995121744258172,1.4763311575159435,7,60.0,airframe.cla,airframe,4.7,0.0,0.0,none,,45.11425281786673,22.291841214217946,9.177899960613448,0.0,0.5205379861868411,0.0,0.0
4.0,5,60.0,17,4.25,0,4.570456099992994,0.44732543683366094,2.417859052327727,6.376142124843002,1.0595934095394466,0.3737383045833905,0.0624217189570092,0.0,0.058589453213551905,0.3016996347900496,4.132658480107476,1.3748937349146328,7,60.0,airframe.cla,airframe,4.7,0.0,0.0,none,,43.92630480795121,19.941464188234722,8.69251742591181,0.0,0.5172664485641585,0.0,0.0
4.0,6,60.0,17,4.25,0,4.798159259101814,0.5217995441945947,2.5793910869690313,6.534404911409168,0.480658152745123,0.3967109528856714,0.06515637336675334,0.0,0.052395321111337774,0.27704796351741906,3.9124599350885045,1.458897387071965,7,60.0,airframe.cla,airframe,4.7,0.0,0.0,none,,45.19813189185425,24.99882546409439,9.118229424884333,0.0,0.5223555070883316,0.0,0.0
4.0,7,60.0,17,4.25,0,5.040345036603229,0.58346246633187,2.7583669556458683,6.709567584599326,0.23245648949083658,0.44739691513100127,0.06848455963844179,0.0,0.06162758615293021,0.29283370085949106,3.9832447075623763,1.4330655136385633,7,60.0,airframe.cla,airframe,4.7,0.0,0.0,none,,45.27975620432739,25.542037539980818,9.293415058911625,0.0,0.5161759360232643,0.0,0.0
4.0,0,60.0,17,4.25,0,3.9020830361702403,0.4760302117938848,1.9527577306872665,5.901403071521217,1.7788224758981683,0.36148092766314877,0.065,1.175,0.06,0.3,4.0,1.4288992721907328,7,60.0,airframe.cla,airframe,4.7,0.25,1.175,none,,40.99771908261513,13.323648613992015,7.439978891564467,0.0,0.5136314067611778,0.0,0.0
4.0,1,60.0,17,4.25,0,3.96061743585916,0.48828841210425555,1.9945878569002997,5.942474318708407,1.6379388007045925,0.3587078134278518,0.06577673839752203,1.175,0.057254305433758694,0.29719603583055065,3.87867441408616,1.431125676117762,7,60.0,airframe.cla,airframe,4.7,0.25,1.175,none,,41.347411111050086,14.827590366168723,7.500840975785316,0.0,0.5125408942202835,0.0,0.0
4.0,2,60.0,17,4.25,0,3.8461459229422457,0.48905415674678443,1.9232282073830547,5.869557471136102,1.9002736380408727,0.356438652887464,0.06428724157605824,1.175,0.04859266356119493,0.2622486043376923,4.159134793507912,1.386136756807275,7,60.0,airframe.cla,airframe,4.7,0.25,1.175,none,,41.088496763950786,12.036277179559072,7.517765988151423,0.0,0.5121773900399854,0.0,0.0
4.0,3,60.0,17,4.25,0,3.742971042967485,0.44646474260172786,1.8404976546545657,5.786983850724902,1.8345624576641664,0.3256027163943069,0.06268446121923109,1.175,0.052262773561290145,0.2919196065623004,3.8788697987002156,1.4315570676173444,7,60.0,airframe.cla,airframe,4.7,0.25,1.175,none,,40.8315813503991,13.523384521402045,7.517397121023954,0.0,0.5150854234823701,0.0,0.0
4.0,4,60.0,17,4.25,0,3.830903976678117,0.45951234921698214,1.904858888536859,5.849598673323256,1.8959043226959655,0.3110625103266971,0.06381785595855352,1.175,0.048949589773249605,0.2992724858189839,3.995121744258172,1.4763311575159435,7,60.0,airframe.cla,airframe,4.7,0.25,1.175,none,,41.01373590994882,12.663862948928696,7.612209848755378,0.0,0.5136314067611778,0.0,0.0
4.0,5,60.0,17,4.25,0,3.7311187998620077,0.4432344794319682,1.8240031321071482,5.771740212517438,2.01892404307916,0.3378024324217334,0.0624217189570092,1.175,0.058589453213551905,0.3016996347900496,4.132658480107476,1.3748937349146328,7,60.0,airframe.cla,airframe,4.7,0.25,1.175,none,,40.60073939397783,11.533596626793873,7.4090778398244925,0.0,0.5150854234823701,0.0,0.0
4.0,6,60.0,17,4.25,0,3.907850048670895,0.48467457112945517,1.964242945220082,5.9114397181655445,1.668532084392949,0.35948295765606814,0.06515637336675334,1.175,0.052395321111337774,0.27704796351741906,3.9124599350885045,1.458897387071965,7,60.0,airframe.cla,airframe,4.7,0.25,1.175,none,,41.15807874975038,14.452579866435357,7.479994470935756,0.0,0.5125408942202835,0.0,0.0
4.0,7,60.0,17,4.25,0,4.127313179557843,0.580320823761808,2.1273163142522202,6.076027409421769,1.5178700190475862,0.39913119453612866,0.06848455963844179,1.175,0.06162758615293021,0.29283370085949106,3.9832447075623763,1.4330655136385633,7,60.0,airframe.cla,airframe,4.7,0.25,1.175,none,,41.84649284279419,15.016571790652868,7.474280168010911,0.0,0.5107233733187931,0.0,0.0
4.0,0,60.0,16,4.0,0,3.3733429982609606,0.45138390005535023,1.4940288056745696,5.420914347915543,2.008201250606654,0.34162010337212667,0.065,2.35,0.06,0.3,4.0,1.4288992721907328,7,60.0,airframe.cla,airframe,4.7,0.5,2.35,none,,39.41530781053918,10.227071166416117,7.075169346503098,0.0,0.5019992729916394,0.0,0.0
4.0,1,60.0,16,4.0,0,3.4339449971963045,0.4591335406784037,1.529645088773855,5.45663756379811,1.9193886045254085,0.3394946960287655,0.06577673839752203,2.35,0.057254305433758694,0.29719603583055065,3.87867441408616,1.431125676117762,7,60.0,airframe.cla,airframe,4.7,0.5,2.35,none,,39.451950563623114,10.978663313670888,7.067540076434551,0.0,0.504543802253726,0.0,0.0
4.0,2,60.0,16,4.0,0,3.324182485969516,0.4204183394305334,1.4672638393465618,5.39062224510581,2.043306719808943,0.34415511588841174,0.06428724157605824,2.35,0.04859266356119493,0.2622486043376923,4.159134793507912,1.386136756807275,7,60.0,airframe.cla,airframe,4.7,0.5,2.35,none,,39.21379746858208,9.460292222602556,7.148923472342951,0.0,0.49981824790985097,0.0,0.0
4.0,3,60.0,16,4.0,0,3.2468259479079706,0.4464464419266178,1.4060457369177954,5.323521374021175,2.0391960600462062,0.31095353058253516,0.06268446121923109,2.35,0.052262773561290145,0.2919196065623004,3.8788697987002156,1.4315570676173444,7,60.0,airframe.cla,airframe,4.7,0.5,2.35,none,,39.43607393953362,10.31365638987814,7.30149533711265,0.0,0.49472918938567795,0.0,0.0
4.0,4,60.0,16,4.0,0,3.3104023278520947,0.45792484399709804,1.461730193039503,5.378506279851861,2.0256002002296025,0.2975815409712007,0.06381785595855352,2.35,0.048949589773249605,0.2992724858189839,3.995121744258172,1.4763311575159435,7,60.0,airframe.cla,airframe,4.7,0.5,2.35,none,,39.71707474005602,9.849659970565984,7.3666337241600655,0.0,0.49691021446746636,0.0,0.0
4.0,5,60.0,16,4.0,0,3.2331631988579166,0.44501876172837346,1.3899869133310645,5.3093758090965695,1.9757795962974853,0.32049333327790636,0.0624217189570092,2.35,0.058589453213551905,0.3016996347900496,4.132658480107476,1.3748937349146328,7,60.0,airframe.cla,airframe,4.7,0.5,2.35,none,,39.41801499067784,9.029293731864575,7.254023663304496,0.0,0.4925481643038895,0.0,0.0
4.0,6,60.0,16,4.0,0,3.3766306753892756,0.4392355259482498,1.5034355865251898,5.428825001885332,1.9497532187256368,0.3433228474116004,0.06515637336675334,2.35,0.052395321111337774,0.27704796351741906,3.9124599350885045,1.458897387071965,7,60.0,airframe.cla,airframe,4.7,0.5,2.35,none,,39.30592593220728,10.795486995984907,7.0571282338862265,0.0,0.5019992729916394,0.0,0.0
4.0,7,60.0,17,4.25,0,3.5174566803205862,0.4826794507621776,1.6451145017553235,5.57699809732968,1.8640046046945857,0.3761045383962954,0.06848455963844179,2.35,0.06162758615293021,0.29283370085949106,3.9832447075623763,1.4330655136385633,7,60.0,airframe.cla,airframe,4.7,0.5,2.35,none,,39.92600139097445,11.078289713844088,6.955086759960473,0.0,0.5110868774990912,0.0,0.0
4.0,0,60.0,15,3.75,1,3.0068448427066494,0.4481802536073163,0.9438847367729405,4.777964581552997,1.8992020954175912,0.3305399637328825,0.065,4.7,0.06,0.3,4.0,1.4288992721907328,7,60.0,airframe.cla,airframe,4.7,1.0,4.7,none,,37.79587907930803,7.49699647721879,7.357452017552144,0.0,0.49909123954925483,0.0,0.0
4.0,1,60.0,15,3.75,1,3.043774883706963,0.4563478146075289,0.9781254452010655,4.813343533092368,1.9044164254835116,0.33070657045236457,0.06577673839752203,4.7,0.057254305433758694,0.29719603583055065,3.87867441408616,1.431125676117762,7,60.0,airframe.cla,airframe,4.7,1.0,4.7,none,,37.94995950307429,8.096478782147924,7.328595077029819,0.0,0.4994547437295529,0.0,0.0
4.0,2,60.0,15,3.75,1,2.971357553912591,0.44989713523453345,0.919525584981853,4.746344532833366,1.9222759116071617,0.3396580997945108,0.06428724157605824,4.7,0.04859266356119493,0.2622486043376923,4.159134793507912,1.386136756807275,7,60.0,airframe.cla,airframe,4.7,1.0,4.7,none,,37.69221258020077,6.905184782478921,7.494146206602106,0.0,0.4961832061068702,0.0,0.0
4.0,3,60.0,15,3.75,1,2.9245292482558582,0.4405300831923725,0.8736288332118717,4.686209559376067,1.9336654400978146,0.3043406369250477,0.06268446121923109,4.7,0.052262773561290145,0.2919196065623004,3.8788697987002156,1.4315570676173444,7,60.0,airframe.cla,airframe,4.7,1.0,4.7,none,,37.74240559347335,7.556880246801484,7.463309626992327,0.0,0.4994547437295529,0.0,0.0
4.0,4,60.0,15,3.75,1,2.9901822846410093,0.4595448392902064,0.9328200059649231,4.745608884909977,1.9132720309065734,0.2943287341375613,0.06381785595855352,4.7,0.048949589773249605,0.2992724858189839,3.995121744258172,1.4763311575159435,7,60.0,airframe.cla,airframe,4.7,1.0,4.7,none,,37.98546475870294,7.1816909850604045,7.468337221319581,0.0,0.49909123954925483,0.0,0.0
4.0,5,60.0,15,3.75,1,2.9141551139714443,0.43547724729787324,0.8566839754514783,4.672635512553893,1.940715837200888,0.30965232311545904,0.0624217189570092,4.7,0.058589453213551905,0.3016996347900496,4.132658480107476,1.3748937349146328,7,60.0,airframe.cla,airframe,4.7,1.0,4.7,none,,37.45610861908906,6.7776655203523415,7.511745459245288,0.0,0.49872773536895676,0.0,0.0
4.0,6,60.0,15,3.75,1,3.0163674150436504,0.45217330434563957,0.9518965749023252,4.78368407824001,1.9125851372167688,0.3370715643453105,0.06515637336675334,4.7,0.052395321111337774,0.27704796351741906,3.9124599350885045,1.458897387071965,7,60.0,airframe.cla,airframe,4.7,1.0,4.7,none,,37.8638123481896,7.958953080983286,7.433761231228878,0.0,0.49872773536895676,0.0,0.0
4.0,7,60.0,15,3.75,0,3.095109916058727,0.4564807000251065,1.0549584093311153,4.912883048513329,1.9631262794592559,0.3650702589126277,0.06848455963844179,4.7,0.06162758615293021,0.29283370085949106,3.9832447075623763,1.4330655136385633,7,60.0,airframe.cla,airframe,4.7,1.0,4.7,none,,37.825781610685276,8.191885634355247,7.126620821292901,0.0,0.4954561977462741,0.0,0.0
4.0,0,60.0,14,3.5,1,2.908424742714052,0.4517687588495739,0.8137044316360825,4.426375796349843,1.9323505783517323,0.33914284195237726,0.065,9.4,0.06,0.3,4.0,1.4288992721907328,7,60.0,airframe.cla,airframe,4.7,2.0,9.4,none,,36.027627259262616,6.0903456197507655,6.432966839028504,0.0,0.4841875681570338,0.0,0.0
4.0,1,60.0,14,3.5,1,2.9050949539886375,0.4545990876069597,0.8136294009428576,4.427715753212946,1.9644065132606487,0.3399751407919688,0.06577673839752203,9.4,0.057254305433758694,0.29719603583055065,3.87867441408616,1.431125676117762,7,60.0,airframe.cla,airframe,4.7,2.0,9.4,none,,36.050642709354925,6.038281984824424,6.680688659361617,0.0,0.4838240639767357,0.0,0.0
4.0,2,60.0,14,3.5,1,2.8971960657345535,0.4457730729053014,0.8299072416807217,4.428301726587675,1.9310113668581614,0.3555895873107632,0.06428724157605824,9.4,0.04859266356119493,0.2622486043376923,4.159134793507912,1.386136756807275,7,60.0,airframe.cla,airframe,4.7,2.0,9.4,none,,36.206908051019575,6.160115460171716,6.683989403023155,0.0,0.48346055979643765,0.0,0.0
4.0,3,60.0,14,3.5,1,2.933029205141985,0.46792729048191534,0.8454743894520423,4.4470286041750215,1.909027854375873,0.31341830530895093,0.06268446121923109,9.4,0.052262773561290145,0.2919196065623004,3.8788697987002156,1.4315570676173444,7,60.0,airframe.cla,airframe,4.7,2.0,9.4,none,,36.22116469434965,6.62990693387616,6.518981050107122,0.0,0.48891312250090874,0.0,0.0
4.0,4,60.0,14,3.5,1,2.9373212547493504,0.48072438481305224,0.8628378004507611,4.464201077592039,1.9294540147609591,0.3030556840422173,0.06381785595855352,9.4,0.048949589773249605,0.2992724858189839,3.995121744258172,1.4763311575159435,7,60.0,airframe.cla,airframe,4.7,2.0,9.4,none,,36.18141984423527,6.470389369909136,6.602200661849243,0.0,0.4921846601235914,0.0,0.0
4.0,5,60.0,14,3.5,1,2.9296485690995957,0.46387303747795045,0.8395237651437577,4.440822832525222,1.885932176061306,0.31782660174959926,0.0624217189570092,9.4,0.058589453213551905,0.3016996347900496,4.132658480107476,1.3748937349146328,7,60.0,airframe.cla,airframe,4.7,2.0,9.4,none,,36.31962872302644,6.733563287799383,6.465173551096559,0.0,0.4867320974191203,0.0,0.0
4.0,6,60.0,14,3.5,1,2.900067036920854,0.4494220394374938,0.8224465012644896,4.430225190270404,1.9350978765340827,0.34996675293169816,0.06515637336675334,9.4,0.052395321111337774,0.27704796351741906,3.9124599350885045,1.458897387071965,7,60.0,airframe.cla,airframe,4.7,2.0,9.4,none,,36.07011584619578,6.033905722834854,6.550070342915251,0.0,0.48455107233733186,0.0,0.0
4.0,7,60.0,14,3.5,1,2.8529991530844847,0.42600836354090554,0.7683562024913833,4.393985734507675,2.0331765840443285,0.3756830882971311,0.06848455963844179,9.4,0.06162758615293021,0.29283370085949106,3.9832447075623763,1.4330655136385633,7,60.0,airframe.cla,airframe,4.7,2.0,9.4,none,,35.922531019404396,6.105056252295242,6.628123460885799,0.0,0.4765539803707743,0.0,0.0
4.0,0,60.0,15,3.75,0,3.3232036938279013,0.6527723728660126,1.370828805646083,4.811081988155614,1.7603137858553792,0.35270683080790544,0.065,18.8,0.06,0.3,4.0,1.4288992721907328,7,60.0,airframe.cla,airframe,4.7,4.0,18.8,none,,41.008423289888384,9.515031530199172,6.413125102154393,0.0,0.5270810614322065,0.0,0.0
4.0,1,60.0,15,3.75,0,3.3054637417800303,0.6396634031565561,1.3488360145494376,4.794173855894204,1.7545571971264975,0.3512738612979112,0.06577673839752203,18.8,0.057254305433758694,0.29719603583055065,3.87867441408616,1.431125676117762,7,60.0,airframe.cla,airframe,4.7,4.0,18.8,none,,40.83478407289602,9.49475271416056,6.466639191353749,0.0,0.5267175572519084,0.0,0.0
4.0,2,60.0,15,3.75,0,3.397397646063567,0.7961665407717848,1.4749764019309541,4.948452004805286,1.6972813920795928,0.3745023953104931,0.06428724157605824,18.8,0.04859266356119493,0.2622486043376923,4.159134793507912,1.386136756807275,7,60.0,airframe.cla,airframe,4.7,4.0,18.8,none,,43.052174762441766,9.498985517188599,6.505242273651938,0.0,0.5343511450381679,0.0,0.0
4.0,3,60.0,15,3.75,0,3.4460552889626426,0.7858133829730517,1.5106426205010797,4.9270585645322456,1.6749164394759468,0.3328288102981561,0.06268446121923109,18.8,0.052262773561290145,0.2919196065623004,3.8788697987002156,1.4315570676173444,7,60.0,airframe.cla,airframe,4.7,4.0,18.8,none,,43.22512838097907,9.978693037089755,7.309824678644167,0.0,0.5376226826608506,0.0,0.0
4.0,4,60.0,15,3.75,0,3.4326163658797206,0.7786082400148073,1.6119887417914762,4.806966849904604,1.58248474146118,0.31812861079565313,0.06381785595855352,18.8,0.048949589773249605,0.2992724858189839,3.995121744258172,1.4763311575159435,7,60.0,airframe.cla,airframe,4.7,4.0,18.8,none,,41.367084272718785,11.072056019345036,7.868571632907774,0.0,0.5314431115957834,0.0,0.0
4.0,5,60.0,15,3.75,0,3.4110125495781483,0.7285421016468863,1.4611563585227143,4.872196512614817,1.7421377974776682,0.3371809900330949,0.0624217189570092,18.8,0.058589453213551905,0.3016996347900496,4.132658480107476,1.3748937349146328,7,60.0,airframe.cla,airframe,4.7,4.0,18.8,none,,42.36197818530712,10.011137106590287,6.948054907936036,0.0,0.5292620865139949,0.0,0.0
4.0,6,60.0,15,3.75,0,3.367124091494277,0.681150047217504,1.4245564980483285,4.905528825535417,1.7432828264432785,0.36408499330669936,0.06515637336675334,18.8,0.052395321111337774,0.27704796351741906,3.9124599350885045,1.458897387071965,7,60.0,airframe.cla,airframe,4.7,4.0,18.8,none,,41.69644879314774,9.373633143335288,6.243169790617416,0.0,0.5343511450381679,0.0,0.0
4.0,7,60.0,14,3.5,0,3.1005641594833353,0.5547704422052657,1.1002932769868559,4.571552251577991,1.8217287111326488,0.3850915880462732,0.06848455963844179,18.8,0.06162758615293021,0.29283370085949106,3.9832447075623763,1.4330655136385633,7,60.0,airframe.cla,airframe,4.7,4.0,18.8,none,,36.536588946615765,8.89823720998664,6.698772694200976,0.0,0.4841875681570338,0.0,0.0
4.0,0,2.48,1,0.25,0,2.533956078880157,1.5078730524825894,2.8204283440091427,6.298910120524653,-0.018211088426760648,0.4435622568456366,0.065,4.7,0.06,0.3,4.0,1.4288992721907328,7,60.0,airframe.max_elevator,airframe,0.4188790204786391,0.1,0.04188790204786391,ground_impact,2.48,42.159487784103185,19.037573423326467,3.005783291498085,0.0,0.7872340425531915,0.0,0.0
4.0,1,2.36,1,0.25,0,2.2829537362422108,1.5293100975994314,2.8239800422530394,6.269549969459539,-0.022504720882453432,0.44682049910801047,0.06577673839752203,4.525026078250777,0.057254305433758694,0.29719603583055065,3.87867441408616,1.431125676117762,7,60.0,airframe.max_elevator,airframe,0.4188790204786391,0.1,0.04188790204786391,ground_impact,2.36,41.926099553333984,20.320092891661748,3.29689810511706,0.0,0.7640449438202247,0.0,0.0
4.0,2,2.6,1,0.25,0,2.7778519474673664,1.4858101318208226,2.836162932909031,6.335476744997505,-0.012338728929836802,0.4391652438801628,0.06428724157605824,4.838135458152227,0.04859266356119493,0.2622486043376923,4.159134793507912,1.386136756807275,7,60.0,airframe.max_elevator,airframe,0.4188790204786391,0.1,0.04188790204786391,ground_impact,2.6,42.371119149952726,17.93227724183584,2.6832178865273453,0.0,0.826530612244898,0.0,0.0
4.0,3,2.62,1,0.25,0,2.821557889026666,1.5460000296139849,2.977496958896743,6.408231724396705,-0.0077633555171076375,0.4510798241388524,0.06268446121923109,4.800642136301137,0.052262773561290145,0.2919196065623004,3.8788697987002156,1.4315570676173444,7,60.0,airframe.max_elevator,airframe,0.4188790204786391,0.1,0.04188790204786391,ground_impact,2.62,42.9880421952884,18.602436224477508,2.71920312904665,0.0,0.8181818181818182,0.0,0.0
4.0,4,2.64,1,0.25,0,2.925819584668395,1.5489651389990926,3.0931981213200923,6.535929821381777,-0.01592092092765436,0.44659841476757095,0.06381785595855352,4.729726818217408,0.048949589773249605,0.2992724858189839,3.995121744258172,1.4763311575159435,7,60.0,airframe.max_elevator,airframe,0.4188790204786391,0.1,0.04188790204786391,ground_impact,2.64,43.28524044044062,18.075012325742122,2.5758912620610035,0.0,0.83,0.0,0.0
4.0,5,2.9,1,0.25,0,3.4328168052803294,1.589601739931862,3.083334946179259,6.5961040712890595,-0.012391002991221877,0.4539503785731689,0.0624217189570092,4.437608011392286,0.058589453213551905,0.3016996347900496,4.132658480107476,1.3748937349146328,7,60.0,airframe.max_elevator,airframe,0.4188790204786391,0.1,0.04188790204786391,ground_impact,2.9,43.21797417512449,17.160358204514928,2.298960808714897,0.0,0.8440366972477065,0.0,0.0
4.0,6,2.36,1,0.25,0,2.225613445910432,1.4942674641220464,2.7610770022696256,6.207593393153502,-0.003001916623025909,0.4430067828459159,0.06515637336675334,4.691750986065357,0.052395321111337774,0.27704796351741906,3.9124599350885045,1.458897387071965,7,60.0,airframe.max_elevator,airframe,0.4188790204786391,0.1,0.04188790204786391,ground_impact,2.36,41.70073272959255,19.991207167498786,3.3013458459687457,0.0,0.7640449438202247,0.0,0.0
4.0,7,2.24,1,0.25,0,1.9489729672772027,1.4599016353399095,2.628061203983458,6.102817714315963,-0.013402276357509069,0.4367724308321024,0.06848455963844179,4.896075500837238,0.06162758615293021,0.29283370085949106,3.9832447075623763,1.4330655136385633,7,60.0,airframe.max_elevator,airframe,0.4188790204786391,0.1,0.04188790204786391,ground_impact,2.24,40.62878244492176,20.670662619788114,3.6701479978802367,0.0,0.7294117647058823,0.0,0.0
4.0,0,60.0,23,5.75,0,4.042502741674562,1.272888202385697,3.1087955899054487,6.7301041482538775,0.47803927725636436,0.4398402876108454,0.065,4.7,0.06,0.3,4.0,1.4288992721907328,7,60.0,airframe.max_elevator,airframe,0.4188790204786391,0.25,0.10471975511965978,none,,43.258836190673456,20.762952969849653,4.967225871826155,0.0,0.5343511450381679,0.0,0.0
4.0,1,60.0,23,5.75,0,4.066371251200542,1.2838147193380174,3.153917492375126,6.77361254097808,0.46777174430778057,0.43432945185172317,0.06577673839752203,4.525026078250777,0.057254305433758694,0.29719603583055065,3.87867441408616,1.431125676117762,7,60.0,airframe.max_elevator,airframe,0.4188790204786391,0.25,0.10471975511965978,none,,43.61618058768241,21.09461957343602,5.23969147548529,0.0,0.5430752453653217,0.0,0.0
