random_seed,requested_duration_s,pitch_attitude_kp_nominal,pitch_attitude_kp_scale,pitch_attitude_kp_applied,pitch_attitude_ki_nominal,pitch_attitude_ki_scale,pitch_attitude_ki_applied,failure_mode,time_to_failure_s,maximum_abs_roll_deg,maximum_abs_pitch_deg,maximum_abs_angle_of_attack_deg,stall_fraction,aileron_saturation_fraction,elevator_saturation_fraction,throttle_saturation_fraction,cruise_velocity_m_s,trial,completed_duration_s,waypoints_completed,laps_completed,success,cross_track_rmse_m,altitude_rmse_m,airspeed_rmse_m_s,mean_airspeed_m_s,minimum_altitude_m,mean_throttle,mass_kg,cla,cd0,thrust_max_n,initial_speed_m_s,initial_heading_rad
7,60.0,0.4,1.0,0.4,0.4,1.0,0.4,none,,37.79587907930803,7.49699647721879,7.357452017552144,0.0,0.49909123954925483,0.0,0.0,4.0,0,60.0,15,3.75,1,3.0068448427066494,0.4481802536073163,0.9438847367729405,4.777964581552997,1.8992020954175912,0.3305399637328825,0.065,4.7,0.06,0.3,4.0,1.4288992721907328
7,60.0,0.4,1.0,0.4,0.4,1.0,0.4,none,,38.42282134989025,7.546234048441775,7.46329276402375,0.0,0.49363867684478374,0.0,0.0,4.0,1,60.0,15,3.75,0,3.023873614513582,0.4850720278466039,1.0360646366109996,4.868876694133007,1.8799021726028449,0.2923188502396518,0.06577673839752203,4.570952355386659,0.0551469765634464,0.33000624819513635,3.9705706040793256,1.4182988268893335
7,60.0,0.4,1.0,0.4,0.4,1.0,0.4,none,,37.927795735584695,7.29167263864137,7.209551862384145,0.0,0.49581970192657215,0.0,0.0,4.0,2,60.0,15,3.75,0,3.0853173278361417,0.4482507249685003,1.0246077439594776,4.887192844284284,1.9120621898709236,0.3333673182614336,0.06428724157605824,4.1638551873761624,0.06636539174031647,0.3114338956812706,4.134814580815061,1.44120695245206
7,60.0,0.4,1.0,0.4,0.4,1.0,0.4,none,,37.79127146100361,6.807825510185619,7.391398267866218,0.0,0.49727371864776443,0.0,0.0,4.0,3,60.0,15,3.75,1,3.004083478023946,0.43954447020503135,0.9359474727830388,4.775685326520441,1.9040138044523378,0.3254936666770769,0.06268446121923109,4.336350357380637,0.05515479194800862,0.2820106664684216,4.17178330111812,1.4246835883790174
7,60.0,0.4,1.0,0.4,0.4,1.0,0.4,none,,38.09351306987996,8.551517968128435,7.247987114617736,0.0,0.49581970192657215,0.0,0.0,4.0,4,60.0,15,3.75,0,3.077444960168557,0.4516438423049945,1.012811789054319,4.866212656734445,1.914386797348367,0.3231695536298028,0.06381785595855352,4.180630719342732,0.059804869770326875,0.30111774343157194,3.8014708311273617,1.422012753510219
7,60.0,0.4,1.0,0.4,0.4,1.0,0.4,none,,37.40887136157045,7.601282553709942,7.451079021867155,0.0,0.5005452562704471,0.0,0.0,4.0,5,60.0,15,3.75,1,2.921069091560468,0.431253529011255,0.8568178540030031,4.682976928368606,1.9414459899612713,0.31898770336840465,0.0624217189570092,4.63370430103694,0.06530633920429904,0.3086503437550528,3.8808036451019428,1.390010992718187
7,60.0,0.4,1.0,0.4,0.4,1.0,0.4,none,,38.15264603280011,7.4008282305205,7.316415811813046,0.0,0.4954561977462741,0.0,0.0,4.0,6,60.0,15,3.75,0,3.0923116478562376,0.45750355360989386,1.0313005430470406,4.881140608017379,1.892815165213624,0.3263498949854678,0.06515637336675334,4.342580092232875,0.056498397403540186,0.2971682681197388,4.097035513386014,1.428497097086861
7,60.0,0.4,1.0,0.4,0.4,1.0,0.4,none,,38.17358040093699,9.139180044325693,7.261083848388232,0.0,0.4961832061068702,0.0,0.0,4.0,7,60.0,15,3.75,0,3.094090153801828,0.4773404939734211,1.0555224047813336,4.901249308455397,1.9108843472449275,0.3367920001408217,0.06848455963844179,4.77649654918772,0.05932978830249504,0.3102436540079281,3.701137032373826,1.4134153665088793
7,60.0,0.4,1.0,0.4,0.4,1.0,0.4,none,,37.614582253468676,7.550234228084077,7.4458088786595225,0.0,0.49981824790985097,0.0,0.0,4.0,8,60.0,15,3.75,1,2.943202655923616,0.43774108858764393,0.884589005256703,4.710257342360999,1.911865975126324,0.32529728654810725,0.06372026305176655,4.744203806428032,0.06066278485949688,0.2990022401977588,3.930524520257145,1.4696048105776907
7,60.0,0.4,1.0,0.4,0.4,1.0,0.4,none,,37.70789786589858,7.258310118284247,7.484614532181983,0.0,0.4994547437295529,0.0,0.0,4.0,9,60.0,15,3.75,1,2.9632696144602537,0.44751969557339555,0.9024679762631449,4.726482515394091,1.9125618728812634,0.3107950723118515,0.06338676526046816,4.647285473614353,0.060382690645530375,0.31000871341251496,3.9854069611494864,1.4516963615488432
7,60.0,0.4,1.0,0.4,0.4,1.0,0.4,none,,38.80135851039823,7.287255229098109,7.421386337110419,0.0,0.4827335514358415,0.0,0.0,4.0,10,60.0,15,3.75,0,3.0740331854265808,0.4843031436960388,1.1579239981634306,5.018817515895465,1.8753435812349195,0.2964161150262505,0.06627358933048151,3.9902737615486155,0.052649665041493834,0.32157783887484226,4.188552246593023,1.4280565011100315
7,60.0,0.4,1.0,0.4,0.4,1.0,0.4,none,,37.854773717861136,7.446587196442676,7.234492818101672,0.0,0.4965467102871683,0.0,0.0,4.0,11,60.0,15,3.75,0,3.0671877524096973,0.44922978838238137,1.0023149927226858,4.852977347498408,1.9077627286949659,0.35041350458596265,0.06592790622121616,4.548088603371248,0.06045684138226205,0.2898650662349152,4.103410585085613,1.4522301712184607
7,60.0,0.4,1.0,0.4,0.4,1.0,0.4,none,,37.555449225124384,7.834011130080722,7.242142221781639,0.0,0.500181752090149,0.0,0.0,4.0,12,60.0,15,3.75,1,3.013962202106787,0.43757654432030757,0.9393682238298577,4.785597518615988,1.9214555320583389,0.35058995988021513,0.06527407704739453,4.6863227333968975,0.06815294053044922,0.3030470791558441,3.95091798696667,1.4170355867813895
7,60.0,0.4,1.0,0.4,0.4,1.0,0.4,none,,37.72523538469275,7.223663580072885,7.490096124247743,0.0,0.4994547437295529,0.0,0.0,4.0,13,60.0,15,3.75,1,2.9182760496714453,0.4419038360228364,0.8703621160832554,4.678362685291551,1.9395554152680736,0.2985145215601927,0.06258078308375867,4.731953134052932,0.0507171319312291,0.29305038635192376,3.9447136158850062,1.4656254103938693
7,60.0,0.4,1.0,0.4,0.4,1.0,0.4,none,,37.91579518211324,8.053852978721169,7.133914184853423,0.0,0.495092693565976,0.0,0.0,4.0,14,60.0,15,3.75,0,3.0866997647360854,0.4459832798492485,1.0212635406960098,4.882802031947029,1.9230574877824735,0.3437733444293715,0.06492394526159549,4.2685017141274795,0.06515629612812958,0.30190902616838744,3.9624706899223114,1.4287107919669706
7,60.0,0.4,1.0,0.4,0.4,1.0,0.4,none,,37.72565005407917,7.150638276395628,7.168602852299648,0.0,0.49581970192657215,0.0,0.0,4.0,15,60.0,15,3.75,0,3.0784455968715716,0.4479752810662787,1.0244451650090314,4.88192416129557,1.9465763683112869,0.36676094250362967,0.06680778830559155,4.5652735761584315,0.060716124154179485,0.2821920820822479,4.228529410068424,1.4492631579477007
7,60.0,0.4,1.0,0.4,0.4,2.0,0.8,none,,36.20148013686421,7.991445820835622,8.97852409996108,0.0,0.4714649218466012,0.0,0.0,4.0,0,60.0,15,3.75,1,2.732981489738551,0.35874059699194344,0.678103816599493,4.472949361969413,2.1596109736748934,0.3313641594831984,0.065,4.7,0.06,0.3,4.0,1.4288992721907328
7,60.0,0.4,1.0,0.4,0.4,2.0,0.8,none,,36.690804825407774,8.441228014318217,9.149305157068483,0.0,0.48055252635405304,0.0,0.0,4.0,1,60.0,15,3.75,1,2.784357469976124,0.3898727663986873,0.7705454223328653,4.566459429355529,2.1957821837090203,0.29178996904557336,0.06577673839752203,4.570952355386659,0.0551469765634464,0.33000624819513635,3.9705706040793256,1.4182988268893335
7,60.0,0.4,1.0,0.4,0.4,2.0,0.8,none,,36.57928347888327,8.012452123510265,8.90159726765029,0.0,0.4830970556161396,0.0,0.0,4.0,2,60.0,15,3.75,1,2.77634572754445,0.3760249788636586,0.7647085183798537,4.594090098987151,2.125281665229962,0.32938718128018846,0.06428724157605824,4.1638551873761624,0.06636539174031647,0.3114338956812706,4.134814580815061,1.44120695245206
7,60.0,0.4,1.0,0.4,0.4,2.0,0.8,none,,36.14187670364112,7.8756274329519735,9.052243876275407,0.0,0.4718284260268993,0.0,0.0,4.0,3,60.0,15,3.75,1,2.7241187559955935,0.35067371685148185,0.6767996951655306,4.482855731374994,2.1760808158765355,0.32658960466539605,0.06268446121923109,4.336350357380637,0.05515479194800862,0.2820106664684216,4.17178330111812,1.4246835883790174
7,60.0,0.4,1.0,0.4,0.4,2.0,0.8,none,,36.618910495204496,8.433871871863266,9.001697170448905,0.0,0.47946201381315884,0.0,0.0,4.0,4,60.0,15,3.75,1,2.774302377066067,0.37024642375688305,0.7498923376950104,4.57250697127205,2.1348254375274394,0.3211769856520599,0.06381785595855352,4.180630719342732,0.059804869770326875,0.30111774343157194,3.8014708311273617,1.422012753510219
7,60.0,0.4,1.0,0.4,0.4,2.0,0.8,none,,35.50281355962546,7.79997564624181,8.9278571351124,0.0,0.4649218466012359,0.0,0.0,4.0,5,60.0,14,3.5,1,2.6916175351528264,0.33460376192212665,0.6155530612301621,4.401043082270237,2.279367737839951,0.3190637578945003,0.0624217189570092,4.63370430103694,0.06530633920429904,0.3086503437550528,3.8808036451019428,1.390010992718187
7,60.0,0.4,1.0,0.4,0.4,2.0,0.8,none,,36.6997636170885,8.113798621405047,9.078424675726389,0.0,0.48127953471464924,0.0,0.0,4.0,6,60.0,15,3.75,1,2.7788308114187275,0.37867472578579525,0.7642901155161468,4.582163251715713,2.1088104904220475,0.32605571765851543,0.06515637336675334,4.342580092232875,0.056498397403540186,0.2971682681197388,4.097035513386014,1.428497097086861
7,60.0,0.4,1.0,0.4,0.4,2.0,0.8,none,,36.89757862111722,9.012071721737803,9.071925954909522,0.0,0.48237004725554344,0.0,0.0,4.0,7,60.0,15,3.75,1,2.778519161941448,0.392325202121962,0.7788590101348117,4.585947735959356,2.0742713676791804,0.3371209664192543,0.06848455963844179,4.77649654918772,0.05932978830249504,0.3102436540079281,3.701137032373826,1.4134153665088793
7,60.0,0.4,1.0,0.4,0.4,2.0,0.8,none,,35.81684024762167,7.844810504488038,8.996109835545772,0.0,0.46673936750272627,0.0,0.0,4.0,8,60.0,14,3.5,1,2.694115901799346,0.3450201508199387,0.636173235412052,4.420246126910364,2.2137583264192804,0.32700829643573304,0.06372026305176655,4.744203806428032,0.06066278485949688,0.2990022401977588,3.930524520257145,1.4696048105776907
7,60.0,0.4,1.0,0.4,0.4,2.0,0.8,none,,35.797769642945354,7.980821272152854,9.051934498398667,0.0,0.4681933842239186,0.0,0.0,4.0,9,60.0,14,3.5,1,2.718975468482567,0.34910102472958954,0.6515430484489931,4.437815777082374,2.2501164073419804,0.31180042464673147,0.06338676526046816,4.647285473614353,0.060382690645530375,0.31000871341251496,3.9854069611494864,1.4516963615488432
7,60.0,0.4,1.0,0.4,0.4,2.0,0.8,none,,37.50024583590579,8.43714704475153,9.098499361938217,0.0,0.48745910577971646,0.0,0.0,4.0,10,60.0,15,3.75,1,2.951419194202759,0.41840737155331575,0.9349777991828268,4.7662155487163265,2.10343344269588,0.29689522102334087,0.06627358933048151,3.9902737615486155,0.052649665041493834,0.32157783887484226,4.188552246593023,1.4280565011100315
7,60.0,0.4,1.0,0.4,0.4,2.0,0.8,none,,36.57047652017937,8.069949086722499,9.058061720095585,0.0,0.47800799709196656,0.0,0.0,4.0,11,60.0,15,3.75,1,2.7433176720773287,0.3720541661759282,0.729114329973496,4.542909733429024,2.0851455392163687,0.35027724963224166,0.06592790622121616,4.548088603371248,0.06045684138226205,0.2898650662349152,4.103410585085613,1.4522301712184607
7,60.0,0.4,1.0,0.4,0.4,2.0,0.8,none,,36.15519948230051,7.878557868275012,8.873446384165772,0.0,0.4725554343874955,0.0,0.0,4.0,12,60.0,15,3.75,1,2.722990089797007,0.35419430072504127,0.671486551204974,4.475953114109134,2.1376138904489084,0.34887765703148227,0.06527407704739453,4.6863227333968975,0.06815294053044922,0.3030470791558441,3.95091798696667,1.4170355867813895
7,60.0,0.4,1.0,0.4,0.4,2.0,0.8,none,,35.69857601681381,7.917367215670246,9.095136035401211,0.0,0.4641948382406398,0.0,0.0,4.0,13,60.0,14,3.5,1,2.6959837743172157,0.3461333354350495,0.6353942165094149,4.404792109578714,2.277237918385425,0.30316632073836497,0.06258078308375867,4.731953134052932,0.0507171319312291,0.29305038635192376,3.9447136158850062,1.4656254103938693
7,60.0,0.4,1.0,0.4,0.4,2.0,0.8,none,,36.687447594898885,8.00062849571065,8.96061355887425,0.0,0.4820065430752454,0.0,0.0,4.0,14,60.0,15,3.75,1,2.7643068217896722,0.37575073178295904,0.7566184583101715,4.583753596818885,2.085883768383039,0.34064029407367913,0.06492394526159549,4.2685017141274795,0.06515629612812958,0.30190902616838744,3.9624706899223114,1.4287107919669706
7,60.0,0.4,1.0,0.4,0.4,2.0,0.8,none,,36.533896076227464,8.054902251588276,9.034344776082603,0.0,0.4816430388949473,0.0,0.0,4.0,15,60.0,15,3.75,1,2.752489323023846,0.3700811244302697,0.7477053214760312,4.568375619945057,2.0887162734295504,0.36685811062125995,0.06680778830559155,4.5652735761584315,0.060716124154179485,0.2821920820822479,4.228529410068424,1.4492631579477007
7,60.0,0.4,1.0,0.4,0.4,4.0,1.6,none,,35.27340352975952,11.686651208561383,12.06299568392935,0.0,0.43693202471828424,0.2108324245728826,0.0,4.0,0,60.0,14,3.5,1,2.548518235928952,0.3209450823532591,0.6301137738829974,4.342946347583428,2.323303509491833,0.3386682832942211,0.065,4.7,0.06,0.3,4.0,1.4288992721907328
7,60.0,0.4,1.0,0.4,0.4,4.0,1.6,none,,36.35356483461146,11.752480192052326,12.297771646098605,0.0,0.4463831334060342,0.21628498727735368,0.0,4.0,1,60.0,15,3.75,1,2.5984653097202304,0.3632300220997533,0.7222536080990348,4.44859080646188,2.2698863537251537,0.2985627298137886,0.06577673839752203,4.570952355386659,0.0551469765634464,0.33000624819513635,3.9705706040793256,1.4182988268893335
7,60.0,0.4,1.0,0.4,0.4,4.0,1.6,none,,36.46477675783799,11.983155081102348,12.069189123210387,0.0,0.4485641584878226,0.23300617957106506,0.0,4.0,2,60.0,14,3.5,1,2.631575332356731,0.3522402382024414,0.7281266255479389,4.4663064433011055,2.2673718336465756,0.33464475137371147,0.06428724157605824,4.1638551873761624,0.06636539174031647,0.3114338956812706,4.134814580815061,1.44120695245206
7,60.0,0.4,1.0,0.4,0.4,4.0,1.6,none,,35.19048662255931,11.655662168304858,12.096237072346494,0.0,0.43838604143947657,0.2122864412940749,0.0,4.0,3,60.0,14,3.5,1,2.5408538553368634,0.3135820051739047,0.6329118126525801,4.356543980277872,2.3277367105793965,0.33369404243143747,0.06268446121923109,4.336350357380637,0.05515479194800862,0.2820106664684216,4.17178330111812,1.4246835883790174
7,60.0,0.4,1.0,0.4,0.4,4.0,1.6,none,,36.260612671901946,11.874938762730695,12.21943943687314,0.0,0.44711014176663033,0.22646310432569974,0.0,4.0,4,60.0,14,3.5,1,2.6097336306284005,0.3492647187568624,0.7127258688214672,4.4509039125415555,2.3118496575838834,0.32749156892288867,0.06381785595855352,4.180630719342732,0.059804869770326875,0.30111774343157194,3.8014708311273617,1.422012753510219
7,60.0,0.4,1.0,0.4,0.4,4.0,1.6,none,,34.03331143297556,11.107268415347269,11.746301942528554,0.0,0.43256997455470736,0.12795347146492184,0.0,4.0,5,60.0,14,3.5,1,2.5374276857567923,0.2915497615974901,0.5393948631455014,4.273285613173153,2.308612826292547,0.3244605763814747,0.0624217189570092,4.63370430103694,0.06530633920429904,0.3086503437550528,3.8808036451019428,1.390010992718187
7,60.0,0.4,1.0,0.4,0.4,4.0,1.6,none,,36.39760660659281,11.993543529114774,12.289748729910858,0.0,0.44711014176663033,0.22900763358778625,0.0,4.0,6,60.0,14,3.5,1,2.616641976452106,0.35215175159360634,0.7268972124453884,4.456214763143897,2.291482042632317,0.3332791798930148,0.06515637336675334,4.342580092232875,0.056498397403540186,0.2971682681197388,4.097035513386014,1.428497097086861
7,60.0,0.4,1.0,0.4,0.4,4.0,1.6,none,,36.607817179435,12.226877112482072,12.313522360925807,0.0,0.4474736459469284,0.22973464194838242,0.0,4.0,7,60.0,14,3.5,1,2.6175534528171345,0.36579713174402984,0.7416911725876897,4.455321699584574,2.3334994785045735,0.34537799558163523,0.06848455963844179,4.77649654918772,0.05932978830249504,0.3102436540079281,3.701137032373826,1.4134153665088793
7,60.0,0.4,1.0,0.4,0.4,4.0,1.6,none,,34.38021603198893,11.303724726834055,11.862121636341488,0.0,0.43293347873500543,0.15667030170846966,0.0,4.0,8,60.0,14,3.5,1,2.5408757579121573,0.29757947215426284,0.5663480385721598,4.288443682510493,2.3228945240140995,0.3340134741312462,0.06372026305176655,4.744203806428032,0.06066278485949688,0.2990022401977588,3.930524520257145,1.4696048105776907
7,60.0,0.4,1.0,0.4,0.4,4.0,1.6,none,,34.68932134263439,11.42753294511964,11.947071192002525,0.0,0.4347509996364958,0.17957106506724826,0.0,4.0,9,60.0,14,3.5,1,2.530652465650197,0.31070370894826715,0.5875132649411865,4.308612236600935,2.2773462997609077,0.31796802016027526,0.06338676526046816,4.647285473614353,0.060382690645530375,0.31000871341251496,3.9854069611494864,1.4516963615488432
7,60.0,0.4,1.0,0.4,0.4,4.0,1.6,none,,37.785360128100066,12.305115679302126,12.441879198132847,0.0,0.46455834242093785,0.25917848055252635,0.0,4.0,10,60.0,15,3.75,1,2.7335573399521635,0.4004450377510145,0.8882199404263704,4.64338937564295,2.283283158717218,0.3029407913285333,0.06627358933048151,3.9902737615486155,0.052649665041493834,0.32157783887484226,4.188552246593023,1.4280565011100315
7,60.0,0.4,1.0,0.4,0.4,4.0,1.6,none,,36.032241326606545,11.895406585267137,12.109430841340876,0.0,0.4412940748818611,0.22973464194838242,0.0,4.0,11,60.0,14,3.5,1,2.601620773352022,0.33429189850467683,0.693174587597924,4.409527082087739,2.335276098993226,0.3579989517605036,0.06592790622121616,4.548088603371248,0.06045684138226205,0.2898650662349152,4.103410585085613,1.4522301712184607
7,60.0,0.4,1.0,0.4,0.4,4.0,1.6,none,,35.39154593944228,11.681627470101533,11.90863832011184,0.0,0.43584151217739003,0.2148309705561614,0.0,4.0,12,60.0,14,3.5,1,2.5765299293893853,0.3166495364409101,0.6300603645993874,4.343996713984619,2.3494247869468734,0.3555841467355863,0.06527407704739453,4.6863227333968975,0.06815294053044922,0.3030470791558441,3.95091798696667,1.4170355867813895
7,60.0,0.4,1.0,0.4,0.4,4.0,1.6,none,,33.76896622534401,10.964200860664635,11.916567258445877,0.0,0.43329698291530355,0.11014176663031625,0.0,4.0,13,60.0,14,3.5,1,2.525273270099309,0.29444499191814394,0.5392964273317573,4.272911710825459,2.28010569706962,0.31063095440175925,0.06258078308375867,4.731953134052932,0.0507171319312291,0.29305038635192376,3.9447136158850062,1.4656254103938693
7,60.0,0.4,1.0,0.4,0.4,4.0,1.6,none,,36.395343838139226,11.976114406579391,12.095328172435496,0.0,0.44674663758633226,0.23336968375136313,0.0,4.0,14,60.0,14,3.5,1,2.6245991071685504,0.3484924500431057,0.7211859771666911,4.453221874169904,2.2926954028492372,0.3466920265697527,0.06492394526159549,4.2685017141274795,0.06515629612812958,0.30190902616838744,3.9624706899223114,1.4287107919669706
7,60.0,0.4,1.0,0.4,0.4,4.0,1.6,none,,36.498562736126466,11.911069230609032,12.017361876951405,0.0,0.44274809160305345,0.23700472555434388,0.0,4.0,15,60.0,14,3.5,1,2.623171295960337,0.33636597738802526,0.7170148807131388,4.432256356665291,2.3540371782439893,0.37515943604995156,0.06680778830559155,4.5652735761584315,0.060716124154179485,0.2821920820822479,4.228529410068424,1.4492631579477007
7,60.0,0.4,1.0,0.4,0.4,6.0,2.4000000000000004,none,,35.60788532716896,15.122103097440302,14.670620479761611,0.0,0.425663395129044,0.4423845874227554,0.0,4.0,0,60.0,14,3.5,1,2.533086504936516,0.3314061505433006,0.7019359568156615,4.354644547798768,2.343887708115206,0.34252349717529634,0.065,4.7,0.06,0.3,4.0,1.4288992721907328
7,60.0,0.4,1.0,0.4,0.4,6.0,2.4000000000000004,none,,36.72265824356185,15.164969245596014,15.174702591992554,0.0,0.43765903307888043,0.5027262813522355,0.0,4.0,1,60.0,15,3.75,1,2.5551002439171073,0.38911548462372075,0.8197576797917776,4.473631843919011,2.2575737374487326,0.30435527289614317,0.06577673839752203,4.570952355386659,0.0551469765634464,0.33000624819513635,3.9705706040793256,1.4182988268893335
7,60.0,0.4,1.0,0.4,0.4,6.0,2.4000000000000004,none,,36.66266690659302,15.112521552838095,14.920246654500591,0.0,0.43656852053798617,0.5376226826608506,0.0,4.0,2,60.0,14,3.5,1,2.627470448437044,0.370203406384702,0.8150739913533497,4.4823059954623234,2.269444746700592,0.3405995403140809,0.06428724157605824,4.1638551873761624,0.06636539174031647,0.3114338956812706,4.134814580815061,1.44120695245206
7,60.0,0.4,1.0,0.4,0.4,6.0,2.4000000000000004,none,,35.540221158959135,15.048587895832188,14.859488831820615,0.0,0.42893493275172667,0.48455107233733186,0.0,4.0,3,60.0,14,3.5,1,2.5270802754495905,0.3321664218868669,0.7176962205526554,4.372124874881432,2.3584375656590773,0.33865129714298686,0.06268446121923109,4.336350357380637,0.05515479194800862,0.2820106664684216,4.17178330111812,1.4246835883790174
7,60.0,0.4,1.0,0.4,0.4,6.0,2.4000000000000004,none,,36.515077338117116,15.093222224961343,15.179775750555574,0.0,0.4351145038167939,0.5365321701199564,0.0,4.0,4,60.0,14,3.5,1,2.6013864723544993,0.36993651573339864,0.8057287346400023,4.4694951154083755,2.281650217069798,0.33378651975936585,0.06381785595855352,4.180630719342732,0.059804869770326875,0.30111774343157194,3.8014708311273617,1.422012753510219
7,60.0,0.4,1.0,0.4,0.4,6.0,2.4000000000000004,none,,34.01235928866109,14.746538458990985,13.672698551508484,0.0,0.4267539076699382,0.32751726644856416,0.0,4.0,5,60.0,14,3.5,1,2.506336366209856,0.29173410297855307,0.5849643070841953,4.277486340666316,2.3618964044117843,0.326683422887284,0.0624217189570092,4.63370430103694,0.06530633920429904,0.3086503437550528,3.8808036451019428,1.390010992718187
7,60.0,0.4,1.0,0.4,0.4,6.0,2.4000000000000004,none,,36.64511768166204,15.146567351076946,15.226830524744187,0.0,0.43547800799709196,0.5383496910214467,0.0,4.0,6,60.0,15,3.75,1,2.6089215720293595,0.3727041007447046,0.82384224321698,4.478956309837457,2.2936873475501414,0.33966914058686065,0.06515637336675334,4.342580092232875,0.056498397403540186,0.2971682681197388,4.097035513386014,1.428497097086861
7,60.0,0.4,1.0,0.4,0.4,6.0,2.4000000000000004,none,,36.86628388343035,15.286065142831097,15.147408119179657,0.0,0.43438749545619776,0.5150854234823701,0.0,4.0,7,60.0,14,3.5,1,2.611646454565152,0.3831744926386975,0.8361784853063714,4.478003072898507,2.2803820697418926,0.351505299697444,0.06848455963844179,4.77649654918772,0.05932978830249504,0.3102436540079281,3.701137032373826,1.4134153665088793
7,60.0,0.4,1.0,0.4,0.4,6.0,2.4000000000000004,none,,34.61881338839246,14.946276007031999,13.756441618893042,0.0,0.425663395129044,0.3478735005452563,0.0,4.0,8,60.0,14,3.5,1,2.517975339693345,0.2993418014044897,0.6157705131366004,4.296027371430185,2.3680246950952486,0.33648042856671684,0.06372026305176655,4.744203806428032,0.06066278485949688,0.2990022401977588,3.930524520257145,1.4696048105776907
7,60.0,0.4,1.0,0.4,0.4,6.0,2.4000000000000004,none,,35.09008716572206,15.049690110895023,14.039579948081608,0.0,0.42639040348964014,0.4227553616866594,0.0,4.0,9,60.0,14,3.5,1,2.5029681782310935,0.31989044193210875,0.6519718818646995,4.313950120641493,2.3282128515291274,0.32110901738928527,0.06338676526046816,4.647285473614353,0.060382690645530375,0.31000871341251496,3.9854069611494864,1.4516963615488432
7,60.0,0.4,1.0,0.4,0.4,6.0,2.4000000000000004,none,,38.050637055517,15.305876875216255,15.733773072180712,0.0,0.45438022537259176,0.5528898582333697,0.0,4.0,10,60.0,15,3.75,1,2.703480783733697,0.4259473215869445,0.9818149050636713,4.665986635085546,2.230857963822803,0.3096107969083633,0.06627358933048151,3.9902737615486155,0.052649665041493834,0.32157783887484226,4.188552246593023,1.4280565011100315
7,60.0,0.4,1.0,0.4,0.4,6.0,2.4000000000000004,none,,36.25611700299412,15.090479629607168,14.738504954762885,0.0,0.430752453653217,0.4838240639767357,0.0,4.0,11,60.0,14,3.5,1,2.5959729434436163,0.34857826099920786,0.7719042161946922,4.425592256361218,2.3296321512705527,0.36297976425763695,0.06592790622121616,4.548088603371248,0.06045684138226205,0.2898650662349152,4.103410585085613,1.4522301712184607
7,60.0,0.4,1.0,0.4,0.4,6.0,2.4000000000000004,none,,35.50637356882937,15.099862666892507,14.144225430527143,0.0,0.42929843693202474,0.40857869865503454,0.0,4.0,12,60.0,14,3.5,1,2.565216418635768,0.318378605554646,0.6837887582314123,4.356440802947397,2.3548955814124635,0.35859136438851813,0.06527407704739453,4.6863227333968975,0.06815294053044922,0.3030470791558441,3.95091798696667,1.4170355867813895
7,60.0,0.4,1.0,0.4,0.4,6.0,2.4000000000000004,none,,33.99594828604264,14.623723982525815,13.91571907035089,0.0,0.4271174118502363,0.32642675390766995,0.0,4.0,13,60.0,14,3.5,1,2.505583880095137,0.2994019835158713,0.5909062651247791,4.275968013700416,2.3290243155072794,0.31310888687290594,0.06258078308375867,4.731953134052932,0.0507171319312291,0.29305038635192376,3.9447136158850062,1.4656254103938693
7,60.0,0.4,1.0,0.4,0.4,6.0,2.4000000000000004,none,,36.57001617146922,15.1023882879932,14.846243374056286,0.0,0.43438749545619776,0.5336241366775718,0.0,4.0,14,60.0,14,3.5,1,2.6189392271054053,0.36489333434745513,0.8063282990200205,4.469355261141782,2.2891140321436105,0.3525327320483399,0.06492394526159549,4.2685017141274795,0.06515629612812958,0.30190902616838744,3.9624706899223114,1.4287107919669706
7,60.0,0.4,1.0,0.4,0.4,6.0,2.4000000000000004,none,,36.74740337339642,15.072592406647445,14.687501690513201,0.0,0.4311159578335151,0.5274445656125045,0.0,4.0,15,60.0,14,3.5,1,2.6296523041023763,0.35396673381310734,0.7992258586019392,4.447618772782953,2.359186492610572,0.38073779852421247,0.06680778830559155,4.5652735761584315,0.060716124154179485,0.2821920820822479,4.228529410068424,1.4492631579477007
7,60.0,0.4,1.0,0.4,0.4,8.0,3.2,none,,35.84290325945854,15.326881714957173,14.668822104877545,0.0,0.4282079243911305,0.45219920029080335,0.0,4.0,0,60.0,14,3.5,1,2.5452193294615415,0.3219419715306759,0.6945585903700416,4.362350525175908,2.350632847265049,0.3423030821909732,0.065,4.7,0.06,0.3,4.0,1.4288992721907328
7,60.0,0.4,1.0,0.4,0.4,8.0,3.2,none,,37.19314719871786,15.473052451919784,17.776819118882194,0.0,0.4322064703744093,0.6215921483097055,0.0,4.0,1,60.0,15,3.75,1,2.5828755351039785,0.4088444675120326,0.8744461100552764,4.491512181946298,2.2601453264410942,0.307836364355387,0.06577673839752203,4.570952355386659,0.0551469765634464,0.33000624819513635,3.9705706040793256,1.4182988268893335
7,60.0,0.4,1.0,0.4,0.4,8.0,3.2,none,,36.97325015836924,15.211143291720557,16.14160737887649,0.0,0.43256997455470736,0.6506724827335514,0.0,4.0,2,60.0,14,3.5,1,2.6322382571649774,0.3809093226266205,0.8470646327385304,4.489033930647655,2.274695778796228,0.34319529525978226,0.06428724157605824,4.1638551873761624,0.06636539174031647,0.3114338956812706,4.134814580815061,1.44120695245206
7,60.0,0.4,1.0,0.4,0.4,8.0,3.2,none,,35.982532763854465,15.147425516381606,15.915156728234296,0.0,0.42602689930934207,0.5339876408578699,0.0,4.0,3,60.0,14,3.5,1,2.5395981151830687,0.3349810976375296,0.7279283991941092,4.374494784361947,2.3567945504753296,0.33915693271952324,0.06268446121923109,4.336350357380637,0.05515479194800862,0.2820106664684216,4.17178330111812,1.4246835883790174
7,60.0,0.4,1.0,0.4,0.4,8.0,3.2,none,,36.841808558661874,15.180868892407453,16.70455187239982,0.0,0.4318429661941112,0.6474009451108688,0.0,4.0,4,60.0,14,3.5,1,2.6100688160121575,0.3818644030244826,0.8437369694723134,4.480081648978325,2.2930215911857275,0.33688259449229824,0.06381785595855352,4.180630719342732,0.059804869770326875,0.30111774343157194,3.8014708311273617,1.422012753510219
7,60.0,0.4,1.0,0.4,0.4,8.0,3.2,none,,33.90931155080788,14.761139279659027,13.520720439606524,0.0,0.4267539076699382,0.31952017448200654,0.0,4.0,5,60.0,14,3.5,1,2.5222929542272285,0.28178691028124786,0.5718493778052481,4.275319182200293,2.3767253646778714,0.32682787641624567,0.0624217189570092,4.63370430103694,0.06530633920429904,0.3086503437550528,3.8808036451019428,1.390010992718187
7,60.0,0.4,1.0,0.4,0.4,8.0,3.2,none,,37.029564925614075,15.233604838140437,16.72486293653539,0.0,0.430752453653217,0.6401308615049073,0.0,4.0,6,60.0,14,3.5,1,2.6188424395284695,0.3859225125591355,0.8602297142965514,4.488530440383045,2.293779659878617,0.34241984756344346,0.06515637336675334,4.342580092232875,0.056498397403540186,0.2971682681197388,4.097035513386014,1.428497097086861
7,60.0,0.4,1.0,0.4,0.4,8.0,3.2,none,,37.2846781916577,15.45349003358365,16.114530824232645,0.0,0.43038894947291895,0.593965830607052,0.0,4.0,7,60.0,14,3.5,1,2.6387156616617746,0.3907745178873063,0.863904885458522,4.4851609153316545,2.290884183819502,0.35324340828565665,0.06848455963844179,4.77649654918772,0.05932978830249504,0.3102436540079281,3.701137032373826,1.4134153665088793
7,60.0,0.4,1.0,0.4,0.4,8.0,3.2,none,,34.185259526027934,14.657578025568242,13.325589685643259,0.0,0.42748091603053434,0.2900763358778626,0.0,4.0,8,60.0,14,3.5,1,2.5338594889024524,0.285229123666528,0.5901109810599118,4.293046922952783,2.3756920313787275,0.33616688068917855,0.06372026305176655,4.744203806428032,0.06066278485949688,0.2990022401977588,3.930524520257145,1.4696048105776907
7,60.0,0.4,1.0,0.4,0.4,8.0,3.2,none,,35.58419804609217,15.266017661820845,15.732682737590848,0.0,0.42420937840785167,0.47946201381315884,0.0,4.0,9,60.0,14,3.5,1,2.5016708809608,0.3226635713653862,0.6708773149412145,4.3248957127096865,2.340895161237469,0.32224284629451355,0.06338676526046816,4.647285473614353,0.060382690645530375,0.31000871341251496,3.9854069611494864,1.4516963615488432
7,60.0,0.4,1.0,0.4,0.4,8.0,3.2,none,,38.68301626676353,16.623762674689978,18.921536477470454,0.0,0.4529262086513995,0.6819338422391857,0.0,4.0,10,60.0,15,3.75,0,2.7274997764135045,0.45814325594535127,1.0599741442887745,4.702242028927291,2.130179567003055,0.31532332941778485,0.06627358933048151,3.9902737615486155,0.052649665041493834,0.32157783887484226,4.188552246593023,1.4280565011100315
7,60.0,0.4,1.0,0.4,0.4,8.0,3.2,none,,36.6068782099902,15.258414680105718,15.520186541469212,0.0,0.4282079243911305,0.5667030170846965,0.0,4.0,11,60.0,14,3.5,1,2.610026404483315,0.3535612284721127,0.7917787315281338,4.4334268084652555,2.3523139824922428,0.3638770406325275,0.06592790622121616,4.548088603371248,0.06045684138226205,0.2898650662349152,4.103410585085613,1.4522301712184607
7,60.0,0.4,1.0,0.4,0.4,8.0,3.2,none,,35.498525525352655,15.19642830010586,13.81623694088871,0.0,0.42893493275172667,0.41802980734278444,0.0,4.0,12,60.0,14,3.5,1,2.591327247970577,0.3112050879754842,0.6745410012809963,4.3589929185267025,2.3669346752265024,0.35881788379847773,0.06527407704739453,4.6863227333968975,0.06815294053044922,0.3030470791558441,3.95091798696667,1.4170355867813895
7,60.0,0.4,1.0,0.4,0.4,8.0,3.2,none,,34.71432761919364,15.103900761874092,14.742761477489683,0.0,0.4271174118502363,0.3675027262813522,0.0,4.0,13,60.0,14,3.5,1,2.493333192411214,0.2992303565745051,0.6041722506565729,4.282258556358787,2.3721375608590898,0.31364901386978866,0.06258078308375867,4.731953134052932,0.0507171319312291,0.29305038635192376,3.9447136158850062,1.4656254103938693
7,60.0,0.4,1.0,0.4,0.4,8.0,3.2,none,,36.885583221010194,15.20509058138349,15.690627575441349,0.0,0.4300254452926209,0.6194111232279171,0.0,4.0,14,60.0,14,3.5,1,2.631382562079233,0.3738364784050839,0.8338100116235846,4.474481254894257,2.2894916161955625,0.35461810789993164,0.06492394526159549,4.2685017141274795,0.06515629612812958,0.30190902616838744,3.9624706899223114,1.4287107919669706
7,60.0,0.4,1.0,0.4,0.4,8.0,3.2,none,,36.92946869449834,15.249623088994895,16.450123763597965,0.0,0.4271174118502363,0.653217011995638,0.0,4.0,15,60.0,14,3.5,1,2.6523860185877233,0.3703706614919506,0.8433658398830804,4.46057221080606,2.3886873740783052,0.38375256180873474,0.06680778830559155,4.5652735761584315,0.060716124154179485,0.2821920820822479,4.228529410068424,1.4492631579477007
7,60.0,0.4,1.0,0.4,0.4,10.0,4.0,none,,35.131816576784594,14.977264566428964,13.308085937033796,0.0,0.4296619411123228,0.37150127226463103,0.0,4.0,0,60.0,14,3.5,1,2.575517137871088,0.30483021383389575,0.6550143261081275,4.351444716937394,2.355670549691101,0.34155685295574056,0.065,4.7,0.06,0.3,4.0,1.4288992721907328
7,60.0,0.4,1.0,0.4,0.4,10.0,4.0,none,,37.2849730183915,16.640611084566387,19.0611873558941,0.0,0.4311159578335151,0.7001090512540894,0.0,4.0,1,60.0,15,3.75,1,2.576860887943784,0.41487236775117575,0.8929141842778328,4.499383805550647,2.2706589565938167,0.30944031164593694,0.06577673839752203,4.570952355386659,0.0551469765634464,0.33000624819513635,3.9705706040793256,1.4182988268893335
7,60.0,0.4,1.0,0.4,0.4,10.0,4.0,none,,37.02780573884654,15.18734579367158,16.67029140360705,0.0,0.43147946201381315,0.7030170846964741,0.0,4.0,2,60.0,14,3.5,1,2.6379400227391714,0.3796390111715054,0.8466447137632868,4.4876040112010145,2.281522775410218,0.34332841182397306,0.06428724157605824,4.1638551873761624,0.06636539174031647,0.3114338956812706,4.134814580815061,1.44120695245206
7,60.0,0.4,1.0,0.4,0.4,10.0,4.0,none,,35.65137635440319,15.18961562180212,14.325453316590195,0.0,0.4300254452926209,0.45510723373318795,0.0,4.0,3,60.0,14,3.5,1,2.5441792368444753,0.3098746111095717,0.6844986915744137,4.370399851783603,2.3685380005019914,0.33713198834814556,0.06268446121923109,4.336350357380637,0.05515479194800862,0.2820106664684216,4.17178330111812,1.4246835883790174
7,60.0,0.4,1.0,0.4,0.4,10.0,4.0,none,,36.94534537896203,15.164293786455357,17.203174104152858,0.0,0.4296619411123228,0.7121046892039259,0.0,4.0,4,60.0,14,3.5,1,2.6108117999611173,0.381313929057987,0.8444154904843479,4.478865397343506,2.296535365887105,0.3370897522161505,0.06381785595855352,4.180630719342732,0.059804869770326875,0.30111774343157194,3.8014708311273617,1.422012753510219
7,60.0,0.4,1.0,0.4,0.4,10.0,4.0,none,,33.70911009225724,13.944297866493585,12.501820785283876,0.0,0.42602689930934207,0.2846237731733915,0.0,4.0,5,60.0,14,3.5,1,2.5454274562363106,0.27015207095790156,0.5482371438551934,4.266649996004164,2.3752702197231375,0.3266852335011858,0.0624217189570092,4.63370430103694,0.06530633920429904,0.3086503437550528,3.8808036451019428,1.390010992718187
7,60.0,0.4,1.0,0.4,0.4,10.0,4.0,none,,37.11113125509367,15.218391858857474,17.347615912572362,0.0,0.43038894947291895,0.6753907669938204,0.0,4.0,6,60.0,14,3.5,1,2.6248563730144254,0.38416265374619935,0.8575114404012897,4.486804265094372,2.2996858344922537,0.3423194238619079,0.06515637336675334,4.342580092232875,0.056498397403540186,0.2971682681197388,4.097035513386014,1.428497097086861
7,60.0,0.4,1.0,0.4,0.4,10.0,4.0,none,,37.298250957754604,15.478030745647676,15.967601774798435,0.0,0.430752453653217,0.5710650672482733,0.0,4.0,7,60.0,14,3.5,1,2.642495836991827,0.38036939398397795,0.8442869363229791,4.481489952214715,2.296773173681096,0.35161988402396527,0.06848455963844179,4.77649654918772,0.05932978830249504,0.3102436540079281,3.701137032373826,1.4134153665088793
7,60.0,0.4,1.0,0.4,0.4,10.0,4.0,none,,34.031050865533096,13.77983215819058,12.103302585390187,0.0,0.4278444202108324,0.30861504907306436,0.0,4.0,8,60.0,14,3.5,1,2.5660799981356353,0.27675214442640433,0.5699716093735298,4.2861381384221335,2.381987587892786,0.33596503315716725,0.06372026305176655,4.744203806428032,0.06066278485949688,0.2990022401977588,3.930524520257145,1.4696048105776907
7,60.0,0.4,1.0,0.4,0.4,10.0,4.0,none,,35.087362804588,15.284303422695649,13.980209060154621,0.0,0.42857142857142855,0.3842239185750636,0.0,4.0,9,60.0,14,3.5,1,2.5178494713351953,0.2994918880679876,0.6252213102989689,4.3183326458006155,2.3437633361100167,0.32089341473322364,0.06338676526046816,4.647285473614353,0.060382690645530375,0.31000871341251496,3.9854069611494864,1.4516963615488432
7,60.0,0.4,1.0,0.4,0.4,10.0,4.0,none,,39.39853997042185,18.81244613636871,20.358038187121615,0.0021810250817884407,0.45219920029080335,0.8084332969829153,0.0,4.0,10,60.0,15,3.75,0,2.738846588212765,0.4741137679221351,1.0933219994922496,4.720927407781517,2.056624893579055,0.317932006338796,0.06627358933048151,3.9902737615486155,0.052649665041493834,0.32157783887484226,4.188552246593023,1.4280565011100315
7,60.0,0.4,1.0,0.4,0.4,10.0,4.0,none,,36.7380630846567,15.244198616392683,16.075916096134804,0.0,0.4267539076699382,0.6226826608505998,0.0,4.0,11,60.0,14,3.5,1,2.613099362033012,0.35612847007434345,0.8028179756902679,4.44015658292641,2.3748856675140617,0.36462810144043245,0.06592790622121616,4.548088603371248,0.06045684138226205,0.2898650662349152,4.103410585085613,1.4522301712184607
7,60.0,0.4,1.0,0.4,0.4,10.0,4.0,none,,35.52997040117282,15.210593723381717,14.327018650444293,0.0,0.42639040348964014,0.4420210832424573,0.0,4.0,12,60.0,14,3.5,1,2.6082907063588183,0.3124814903268937,0.6843008346191444,4.361044431142939,2.3924674468427995,0.3595265947032358,0.06527407704739453,4.6863227333968975,0.06815294053044922,0.3030470791558441,3.95091798696667,1.4170355867813895
7,60.0,0.4,1.0,0.4,0.4,10.0,4.0,none,,34.38691751281295,14.933520716412016,14.012282010628619,0.0,0.42602689930934207,0.33696837513631406,0.0,4.0,13,60.0,14,3.5,1,2.502440693237256,0.2874158947780339,0.5797632833760948,4.271935790025326,2.3811483234576567,0.31375798190693704,0.06258078308375867,4.731953134052932,0.0507171319312291,0.29305038635192376,3.9447136158850062,1.4656254103938693
7,60.0,0.4,1.0,0.4,0.4,10.0,4.0,none,,36.9869600040685,15.203376289115313,16.100040816277726,0.0,0.430752453653217,0.6317702653580516,0.0,4.0,14,60.0,14,3.5,1,2.639547377311362,0.37068649388365266,0.8292214142897214,4.474035039072946,2.3018617042292804,0.3542988154367989,0.06492394526159549,4.2685017141274795,0.06515629612812958,0.30190902616838744,3.9624706899223114,1.4287107919669706
7,60.0,0.4,1.0,0.4,0.4,10.0,4.0,none,,37.039622089601885,15.29197019460491,16.829615679136253,0.0,0.42529989094874593,0.7640857869865504,0.0,4.0,15,60.0,14,3.5,1,2.6534442677722767,0.377088266750648,0.8587439670363161,4.464943673002933,2.3809603265348036,0.38528926917873757,0.06680778830559155,4.5652735761584315,0.060716124154179485,0.2821920820822479,4.228529410068424,1.4492631579477007
7,60.0,0.4,2.0,0.8,0.4,1.0,0.4,none,,37.36908536273848,7.002918309527133,7.702301459272654,0.0,0.49581970192657215,0.0,0.0,4.0,0,60.0,15,3.75,1,2.8935003369431027,0.4110464592898158,0.8432567076486325,4.679974986998493,1.9647475497972233,0.3296536447088784,0.065,4.7,0.06,0.3,4.0,1.4288992721907328
7,60.0,0.4,2.0,0.8,0.4,1.0,0.4,none,,37.85939635582865,7.065993287476525,7.779378611101348,0.0,0.49727371864776443,0.0,0.0,4.0,1,60.0,15,3.75,1,2.992918404237184,0.4499200516458427,0.943058685196083,4.776485748940457,1.9505510217840034,0.2908292100235282,0.06577673839752203,4.570952355386659,0.0551469765634464,0.33000624819513635,3.9705706040793256,1.4182988268893335
7,60.0,0.4,2.0,0.8,0.4,1.0,0.4,none,,37.60845403155836,6.8068723019293556,7.57274586981318,0.0,0.4943656852053799,0.0,0.0,4.0,2,60.0,15,3.75,1,2.9927227157647334,0.4177604417924919,0.9334382496407467,4.797300966215809,1.966648669780289,0.3312401144046813,0.06428724157605824,4.1638551873761624,0.06636539174031647,0.3114338956812706,4.134814580815061,1.44120695245206
7,60.0,0.4,2.0,0.8,0.4,1.0,0.4,none,,37.364450439287914,6.6375734496027645,7.711019242689032,0.0,0.49363867684478374,0.0,0.0,4.0,3,60.0,15,3.75,1,2.888886766277321,0.4041251441358816,0.8393901089486151,4.68228267259044,1.9729528956878533,0.3248358588300824,0.06268446121923109,4.336350357380637,0.05515479194800862,0.2820106664684216,4.17178330111812,1.4246835883790174
7,60.0,0.4,2.0,0.8,0.4,1.0,0.4,none,,37.7151503717681,8.02548997646599,7.58574032864361,0.0,0.495092693565976,0.0,0.0,4.0,4,60.0,15,3.75,1,2.9812558322824048,0.41790438222101317,0.9222478527297323,4.778269810518547,1.9747262471734321,0.321868772867727,0.06381785595855352,4.180630719342732,0.059804869770326875,0.30111774343157194,3.8014708311273617,1.422012753510219
7,60.0,0.4,2.0,0.8,0.4,1.0,0.4,none,,36.989032184135645,7.1154287530812645,7.737418117901983,0.0,0.48782260996001453,0.0,0.0,4.0,5,60.0,15,3.75,1,2.8281118519663173,0.3947645342609168,0.7657840638266683,4.59247099528561,2.0196453283062077,0.317765824935179,0.0624217189570092,4.63370430103694,0.06530633920429904,0.3086503437550528,3.8808036451019428,1.390010992718187
7,60.0,0.4,2.0,0.8,0.4,1.0,0.4,none,,37.75239110745945,6.911404817096753,7.662690692917049,0.0,0.49472918938567795,0.0,0.0,4.0,6,60.0,15,3.75,1,2.988693960718379,0.42338095427581834,0.9384152362549436,4.791011146210916,1.9545780276516203,0.3256535790387616,0.06515637336675334,4.342580092232875,0.056498397403540186,0.2971682681197388,4.097035513386014,1.428497097086861
7,60.0,0.4,2.0,0.8,0.4,1.0,0.4,none,,37.807944559851784,8.57791755129833,7.718764955706145,0.0,0.49472918938567795,0.0,0.0,4.0,7,60.0,15,3.75,1,3.0040808063507973,0.4404093194468675,0.9585808023965272,4.806231852646235,1.9593484478416463,0.3360412039324206,0.06848455963844179,4.77649654918772,0.05932978830249504,0.3102436540079281,3.701137032373826,1.4134153665088793
7,60.0,0.4,2.0,0.8,0.4,1.0,0.4,none,,37.16713498000242,7.058818946949949,7.756684143964371,0.0,0.49073064340239914,0.0,0.0,4.0,8,60.0,15,3.75,1,2.84760594538854,0.40141573861383234,0.7910187924410078,4.6179526040945085,1.987069098118504,0.32468600165253797,0.06372026305176655,4.744203806428032,0.06066278485949688,0.2990022401977588,3.930524520257145,1.4696048105776907
7,60.0,0.4,2.0,0.8,0.4,1.0,0.4,none,,37.24622831860075,6.786308143093216,7.7698071612261055,0.0,0.4940021810250818,0.0,0.0,4.0,9,60.0,15,3.75,1,2.859440162863755,0.4101857532746468,0.8099418007242607,4.636608835402751,1.9913669037307364,0.3100550630513775,0.06338676526046816,4.647285473614353,0.060382690645530375,0.31000871341251496,3.9854069611494864,1.4516963615488432
7,60.0,0.4,2.0,0.8,0.4,1.0,0.4,none,,38.473152802017296,6.972471425833462,7.652388404817268,0.0,0.4827335514358415,0.0,0.0,4.0,10,60.0,15,3.75,0,3.0067565289061813,0.4508673960308191,1.0779857206052892,4.943872526708014,1.9224850633746293,0.2964127053848399,0.06627358933048151,3.9902737615486155,0.052649665041493834,0.32157783887484226,4.188552246593023,1.4280565011100315
7,60.0,0.4,2.0,0.8,0.4,1.0,0.4,none,,37.44454425805867,6.943131134463698,7.663626761518661,0.0,0.49472918938567795,0.0,0.0,4.0,11,60.0,15,3.75,1,2.9624220843490683,0.4119618394750409,0.9021860262678895,4.755422379370192,1.971718956572808,0.34945211653787955,0.06592790622121616,4.548088603371248,0.06045684138226205,0.2898650662349152,4.103410585085613,1.4522301712184607
7,60.0,0.4,2.0,0.8,0.4,1.0,0.4,none,,37.132931625524506,7.319484062759404,7.59815445886686,0.0,0.4954561977462741,0.0,0.0,4.0,12,60.0,15,3.75,1,2.890755610419917,0.3991589473036607,0.8360979096833479,4.6845844460875234,1.9884236672721816,0.3488201693015323,0.06527407704739453,4.6863227333968975,0.06815294053044922,0.3030470791558441,3.95091798696667,1.4170355867813895
7,60.0,0.4,2.0,0.8,0.4,1.0,0.4,none,,37.26021920039722,6.779066065832789,7.768269092851997,0.0,0.48891312250090874,0.0,0.0,4.0,13,60.0,15,3.75,1,2.831535748776055,0.40657447199641644,0.7829222976743238,4.592814414256189,2.005151563864743,0.29888392915996864,0.06258078308375867,4.731953134052932,0.0507171319312291,0.29305038635192376,3.9447136158850062,1.4656254103938693
7,60.0,0.4,2.0,0.8,0.4,1.0,0.4,none,,37.55186591665512,7.5348525314033425,7.576614003540591,0.0,0.4943656852053799,0.0,0.0,4.0,14,60.0,15,3.75,1,2.984592265216629,0.4126493492342671,0.9276382474606193,4.79098601645392,1.9779264128770515,0.34198488040838887,0.06492394526159549,4.2685017141274795,0.06515629612812958,0.30190902616838744,3.9624706899223114,1.4287107919669706
7,60.0,0.4,2.0,0.8,0.4,1.0,0.4,none,,37.29966956220979,6.650219997478997,7.638320491209525,0.0,0.4940021810250818,0.0,0.0,4.0,15,60.0,15,3.75,1,2.9760518051778524,0.40788794256208033,0.9221799715006124,4.781432587091684,2.015438209821437,0.3656925209950273,0.06680778830559155,4.5652735761584315,0.060716124154179485,0.2821920820822479,4.228529410068424,1.4492631579477007
7,60.0,0.4,2.0,0.8,0.4,2.0,0.8,none,,35.80348920362775,7.923379455190496,9.213593530624,0.0,0.46564885496183206,0.0,0.0,4.0,0,60.0,14,3.5,1,2.6826699107395453,0.3412178224123351,0.6399304548981927,4.432987163827848,2.223876764326522,0.33224390335060056,0.065,4.7,0.06,0.3,4.0,1.4288992721907328
7,60.0,0.4,2.0,0.8,0.4,2.0,0.8,none,,36.386569816913834,8.363037865786392,9.379930130800377,0.0,0.4743729552889858,0.0,0.0,4.0,1,60.0,15,3.75,1,2.7437098834608307,0.374626941286365,0.7382751320886629,4.5326285888168485,2.2594418078673186,0.2925620051381341,0.06577673839752203,4.570952355386659,0.0551469765634464,0.33000624819513635,3.9705706040793256,1.4182988268893335
7,60.0,0.4,2.0,0.8,0.4,2.0,0.8,none,,36.21645134630969,8.065343367434796,9.112734804143829,0.0,0.4747364594692839,0.0,0.0,4.0,2,60.0,15,3.75,1,2.73523712791245,0.3646937256401454,0.7316259633910562,4.553776770668236,2.1972514481914596,0.3294071343211299,0.06428724157605824,4.1638551873761624,0.06636539174031647,0.3114338956812706,4.134814580815061,1.44120695245206
7,60.0,0.4,2.0,0.8,0.4,2.0,0.8,none,,35.75825779989181,7.863132983736248,9.253497029803272,0.0,0.465285350781534,0.0,0.0,4.0,3,60.0,15,3.75,1,2.6872754510316064,0.33435448388087435,0.6392913131759193,4.442370082507706,2.2413156474080407,0.32739671014115823,0.06268446121923109,4.336350357380637,0.05515479194800862,0.2820106664684216,4.17178330111812,1.4246835883790174
7,60.0,0.4,2.0,0.8,0.4,2.0,0.8,none,,36.273463536830306,8.073920220233884,9.173218858218384,0.0,0.4743729552889858,0.0,0.0,4.0,4,60.0,15,3.75,1,2.726124904036434,0.3582707459686784,0.7187547507047068,4.536793999477225,2.195326907818555,0.3217525299084247,0.06381785595855352,4.180630719342732,0.059804869770326875,0.30111774343157194,3.8014708311273617,1.422012753510219
7,60.0,0.4,2.0,0.8,0.4,2.0,0.8,none,,35.135916223925406,7.509836778298401,9.005475749987033,0.0,0.4580152671755725,0.0,0.0,4.0,5,60.0,14,3.5,1,2.648094804291474,0.3172798839982169,0.5768752789375488,4.365599876767803,2.3092916186431762,0.31952468494808667,0.0624217189570092,4.63370430103694,0.06530633920429904,0.3086503437550528,3.8808036451019428,1.390010992718187
7,60.0,0.4,2.0,0.8,0.4,2.0,0.8,none,,36.33160929475677,8.129465474138517,9.248495704382723,0.0,0.4747364594692839,0.0,0.0,4.0,6,60.0,15,3.75,1,2.728549214604039,0.36612630317558736,0.7302449349508037,4.543333557816439,2.1721308077818127,0.32672316009040087,0.06515637336675334,4.342580092232875,0.056498397403540186,0.2971682681197388,4.097035513386014,1.428497097086861
7,60.0,0.4,2.0,0.8,0.4,2.0,0.8,none,,36.498039865225294,8.473764252623036,9.24645819540824,0.0,0.47691748455107236,0.0,0.0,4.0,7,60.0,15,3.75,1,2.7335883263100356,0.3779725142928589,0.7438593328025851,4.545855061126117,2.136931333645324,0.3379835677057026,0.06848455963844179,4.77649654918772,0.05932978830249504,0.3102436540079281,3.701137032373826,1.4134153665088793
7,60.0,0.4,2.0,0.8,0.4,2.0,0.8,none,,35.42766164642524,7.643291999960256,9.101069026696976,0.0,0.4623773173391494,0.0,0.0,4.0,8,60.0,14,3.5,1,2.647402335603061,0.327073561346264,0.5973138095029165,4.383161910644882,2.2769463186878003,0.32777579264941836,0.06372026305176655,4.744203806428032,0.06066278485949688,0.2990022401977588,3.930524520257145,1.4696048105776907
7,60.0,0.4,2.0,0.8,0.4,2.0,0.8,none,,35.427243187718226,7.774689981212637,9.15581957181768,0.0,0.46274082151944745,0.0,0.0,4.0,9,60.0,14,3.5,1,2.6682418521198548,0.33124693597423793,0.6142642502228259,4.402259898979168,2.2839158823751537,0.31247201531123747,0.06338676526046816,4.647285473614353,0.060382690645530375,0.31000871341251496,3.9854069611494864,1.4516963615488432
7,60.0,0.4,2.0,0.8,0.4,2.0,0.8,none,,37.34264899907101,8.454810183211748,9.296903830864895,0.0,0.48527808069792805,0.0,0.0,4.0,10,60.0,15,3.75,1,2.900101878967273,0.41283378645345115,0.9073795368695191,4.734026911284772,2.142788780497639,0.2972517410268334,0.06627358933048151,3.9902737615486155,0.052649665041493834,0.32157783887484226,4.188552246593023,1.4280565011100315
7,60.0,0.4,2.0,0.8,0.4,2.0,0.8,none,,36.140046826208234,7.981472838632995,9.228665070523498,0.0,0.4718284260268993,0.0,0.0,4.0,11,60.0,15,3.75,1,2.7009084346156844,0.3551473336289467,0.6919213516521232,4.499972854527622,2.15761778772048,0.3510892252092589,0.06592790622121616,4.548088603371248,0.06045684138226205,0.2898650662349152,4.103410585085613,1.4522301712184607
7,60.0,0.4,2.0,0.8,0.4,2.0,0.8,none,,35.75259340504255,7.846773595194,9.076094968269642,0.0,0.465285350781534,0.0,0.0,4.0,12,60.0,14,3.5,1,2.678217126431121,0.3366958791638572,0.6334460089823986,4.432927539374443,2.203887154784607,0.34943575195974647,0.06527407704739453,4.6863227333968975,0.06815294053044922,0.3030470791558441,3.95091798696667,1.4170355867813895
7,60.0,0.4,2.0,0.8,0.4,2.0,0.8,none,,35.3688321633688,7.562690660123707,9.084749546463712,0.0,0.4598327880770629,0.0,0.0,4.0,13,60.0,14,3.5,1,2.6562642518791266,0.32983079301190105,0.5964619813419993,4.37186974755172,2.2941480501727756,0.304141009476786,0.06258078308375867,4.731953134052932,0.0507171319312291,0.29305038635192376,3.9447136158850062,1.4656254103938693
7,60.0,0.4,2.0,0.8,0.4,2.0,0.8,none,,36.30029759925096,8.02661057163288,9.17383431257643,0.0,0.4743729552889858,0.0,0.0,4.0,14,60.0,15,3.75,1,2.723915753758992,0.3636530655982124,0.7226996288804708,4.5428638803822485,2.1529618358055407,0.340870840017201,0.06492394526159549,4.2685017141274795,0.06515629612812958,0.30190902616838744,3.9624706899223114,1.4287107919669706
7,60.0,0.4,2.0,0.8,0.4,2.0,0.8,none,,36.089830946897706,7.967104618925803,9.225420010475844,0.0,0.4747364594692839,0.0,0.0,4.0,15,60.0,15,3.75,1,2.70528772713195,0.35288808813446937,0.7099978882695558,4.522914751420483,2.16309934380206,0.3677407826903555,0.06680778830559155,4.5652735761584315,0.060716124154179485,0.2821920820822479,4.228529410068424,1.4492631579477007
7,60.0,0.4,2.0,0.8,0.4,4.0,1.6,none,,35.306520061743875,11.379316887161355,11.855336657514387,0.0,0.43693202471828424,0.23336968375136313,0.0,4.0,0,60.0,14,3.5,1,2.551842989819578,0.32166456952030126,0.6192222550465026,4.338584103446778,2.318651015927397,0.33845559265074243,0.065,4.7,0.06,0.3,4.0,1.4288992721907328
7,60.0,0.4,2.0,0.8,0.4,4.0,1.6,none,,36.345267075032346,11.376828850319635,12.015264885275565,0.0,0.4463831334060342,0.25081788440567065,0.0,4.0,1,60.0,15,3.75,1,2.6004175434857504,0.3619716039331686,0.7099446668091225,4.443955521809184,2.2738847443751866,0.2981485966191353,0.06577673839752203,4.570952355386659,0.0551469765634464,0.33000624819513635,3.9705706040793256,1.4182988268893335
7,60.0,0.4,2.0,0.8,0.4,4.0,1.6,none,,36.474148289722166,11.76674991408452,11.816020920245991,0.0,0.44929116684841874,0.2937113776808433,0.0,4.0,2,60.0,14,3.5,1,2.63181214943512,0.35288927949728865,0.7202705678733164,4.464542233579598,2.2628410672892474,0.33425982779022045,0.06428724157605824,4.1638551873761624,0.06636539174031647,0.3114338956812706,4.134814580815061,1.44120695245206
7,60.0,0.4,2.0,0.8,0.4,4.0,1.6,none,,35.21993071761142,11.351700109765904,11.877977832972604,0.0,0.43838604143947657,0.23591421301344964,0.0,4.0,3,60.0,14,3.5,1,2.5519382380963287,0.3132180152442883,0.6219787079101614,4.352309453446797,2.3286477330087054,0.3334232753046454,0.06268446121923109,4.336350357380637,0.05515479194800862,0.2820106664684216,4.17178330111812,1.4246835883790174
7,60.0,0.4,2.0,0.8,0.4,4.0,1.6,none,,36.259484013904604,11.58762016122052,11.927638285686458,0.0,0.44820065430752454,0.27989821882951654,0.0,4.0,4,60.0,14,3.5,1,2.6109606573614603,0.34855472035211255,0.7031432127899592,4.448369483560712,2.3140308019941496,0.3271007513027352,0.06381785595855352,4.180630719342732,0.059804869770326875,0.30111774343157194,3.8014708311273617,1.422012753510219
7,60.0,0.4,2.0,0.8,0.4,4.0,1.6,none,,34.06162054494744,10.6770654216828,11.559038615086195,0.0,0.43256997455470736,0.15376226826608505,0.0,4.0,5,60.0,14,3.5,1,2.529015780573584,0.2938780180191651,0.5305801338355276,4.267174355793428,2.3064139433119086,0.32438137221612756,0.0624217189570092,4.63370430103694,0.06530633920429904,0.3086503437550528,3.8808036451019428,1.390010992718187
7,60.0,0.4,2.0,0.8,0.4,4.0,1.6,none,,36.379210579290714,11.70172899118939,12.005634034851028,0.0,0.4485641584878226,0.28644129407488184,0.0,4.0,6,60.0,14,3.5,1,2.615679471636922,0.352026128657984,0.7171874442898502,4.453787344724124,2.2899686394195715,0.33291584925709783,0.06515637336675334,4.342580092232875,0.056498397403540186,0.2971682681197388,4.097035513386014,1.428497097086861
7,60.0,0.4,2.0,0.8,0.4,4.0,1.6,none,,36.59037491876343,11.91624834960313,12.055556050427867,0.0,0.44783715012722647,0.28098873137041075,0.0,4.0,7,60.0,14,3.5,1,2.6208169424476577,0.3655613472196416,0.7309828898311821,4.451507391535115,2.3252712471549746,0.34493879092835394,0.06848455963844179,4.77649654918772,0.05932978830249504,0.3102436540079281,3.701137032373826,1.4134153665088793
7,60.0,0.4,2.0,0.8,0.4,4.0,1.6,none,,34.39910471993393,10.929041618865515,11.663312778663439,0.0,0.4336604870956016,0.18865866957470012,0.0,4.0,8,60.0,14,3.5,1,2.5449696316052566,0.29926397018750933,0.5563812535258263,4.282830876638131,2.323735496989163,0.3339059192293379,0.06372026305176655,4.744203806428032,0.06066278485949688,0.2990022401977588,3.930524520257145,1.4696048105776907
7,60.0,0.4,2.0,0.8,0.4,4.0,1.6,none,,34.73556853609135,11.01433848897688,11.742232647029944,0.0,0.4351145038167939,0.20138131588513267,0.0,4.0,9,60.0,14,3.5,1,2.5402443802271106,0.3120813156845681,0.5772535732586953,4.303364013912213,2.273674162549239,0.31792121889233615,0.06338676526046816,4.647285473614353,0.060382690645530375,0.31000871341251496,3.9854069611494864,1.4516963615488432
7,60.0,0.4,2.0,0.8,0.4,4.0,1.6,none,,37.78270836552651,12.184615704784045,12.342854858378324,0.0,0.4641948382406398,0.3202471828426027,0.0,4.0,10,60.0,15,3.75,1,2.7267716983721915,0.40201592325688024,0.8805658761406681,4.641207603354711,2.2574415751926593,0.3026191561384878,0.06627358933048151,3.9902737615486155,0.052649665041493834,0.32157783887484226,4.188552246593023,1.4280565011100315
7,60.0,0.4,2.0,0.8,0.4,4.0,1.6,none,,36.02136383983442,11.606091108616962,11.857238229545228,0.0,0.44274809160305345,0.26426753907669936,0.0,4.0,11,60.0,14,3.5,1,2.600378922073049,0.33355906254881346,0.6843887357968765,4.407934583875808,2.33620297735931,0.357627873759173,0.06592790622121616,4.548088603371248,0.06045684138226205,0.2898650662349152,4.103410585085613,1.4522301712184607
7,60.0,0.4,2.0,0.8,0.4,4.0,1.6,none,,35.36517021154072,11.362403923909083,11.701431922413585,0.0,0.4362050163576881,0.23991275899672845,0.0,4.0,12,60.0,14,3.5,1,2.5744682801577405,0.31775306114694835,0.6219085835371088,4.341560906948535,2.339721662712338,0.3553471810095847,0.06527407704739453,4.6863227333968975,0.06815294053044922,0.3030470791558441,3.95091798696667,1.4170355867813895
7,60.0,0.4,2.0,0.8,0.4,4.0,1.6,none,,33.7659460199702,10.66134726427255,11.713647927771946,0.0,0.4340239912758997,0.12940748818611414,0.0,4.0,13,60.0,14,3.5,1,2.515479341929706,0.29620871478789035,0.5290169066970016,4.266416180473072,2.2788133799571644,0.3106429476006183,0.06258078308375867,4.731953134052932,0.0507171319312291,0.29305038635192376,3.9447136158850062,1.4656254103938693
7,60.0,0.4,2.0,0.8,0.4,4.0,1.6,none,,36.387791121428734,11.742835838214017,11.845559396342647,0.0,0.44711014176663033,0.2908033442384587,0.0,4.0,14,60.0,14,3.5,1,2.628133767368146,0.3484406478728777,0.7126982600234865,4.450724367757008,2.2846460777694473,0.34633001003234537,0.06492394526159549,4.2685017141274795,0.06515629612812958,0.30190902616838744,3.9624706899223114,1.4287107919669706
7,60.0,0.4,2.0,0.8,0.4,4.0,1.6,none,,36.4930216835169,11.643197876881581,11.74961038123091,0.0,0.4434750999636496,0.2733551435841512,0.0,4.0,15,60.0,14,3.5,1,2.627121724677031,0.3351504385452822,0.7089460828444112,4.431076980284559,2.3593717631277675,0.3748017043818512,0.06680778830559155,4.5652735761584315,0.060716124154179485,0.2821920820822479,4.228529410068424,1.4492631579477007
7,60.0,0.4,2.0,0.8,0.4,6.0,2.4000000000000004,none,,35.444820662315784,14.793450593982838,14.211227789618592,0.0,0.42748091603053434,0.4649218466012359,0.0,4.0,0,60.0,14,3.5,1,2.5367347359348433,0.327837721108452,0.6854333456790145,4.347695504187282,2.3316400259186283,0.3420559868273767,0.065,4.7,0.06,0.3,4.0,1.4288992721907328
7,60.0,0.4,2.0,0.8,0.4,6.0,2.4000000000000004,none,,36.542150210584424,14.871859256102605,14.620988784254031,0.0,0.4391130498000727,0.5154489276626681,0.0,4.0,1,60.0,15,3.75,1,2.5566362353108136,0.3824933795375441,0.7930255888163462,4.462076351515366,2.2555506002514334,0.3032563220629905,0.06577673839752203,4.570952355386659,0.0551469765634464,0.33000624819513635,3.9705706040793256,1.4182988268893335
7,60.0,0.4,2.0,0.8,0.4,6.0,2.4000000000000004,none,,36.57168130008896,14.895456636038835,14.463958741468119,0.0,0.43765903307888043,0.5601599418393312,0.0,4.0,2,60.0,14,3.5,1,2.617519450966991,0.3661907323506237,0.7978715233805925,4.476435068251732,2.2619393636713143,0.33959867565922064,0.06428724157605824,4.1638551873761624,0.06636539174031647,0.3114338956812706,4.134814580815061,1.44120695245206
7,60.0,0.4,2.0,0.8,0.4,6.0,2.4000000000000004,none,,35.3400175666618,14.768673187771045,14.375471462217352,0.0,0.42748091603053434,0.5143584151217739,0.0,4.0,3,60.0,14,3.5,1,2.529108808910801,0.3263761135082853,0.6974828066832098,4.362778967466818,2.3449441387935543,0.33794690760410007,0.06268446121923109,4.336350357380637,0.05515479194800862,0.2820106664684216,4.17178330111812,1.4246835883790174
7,60.0,0.4,2.0,0.8,0.4,6.0,2.4000000000000004,none,,36.39410777821949,14.886438582162482,14.676527470998547,0.0,0.43765903307888043,0.5510723373318793,0.0,4.0,4,60.0,14,3.5,1,2.5989853543755514,0.365615105621278,0.7868305676361783,4.462845598167112,2.2728821439719313,0.33278120575561204,0.06381785595855352,4.180630719342732,0.059804869770326875,0.30111774343157194,3.8014708311273617,1.422012753510219
7,60.0,0.4,2.0,0.8,0.4,6.0,2.4000000000000004,none,,33.70340511634162,14.327613918916738,13.175498601910704,0.0,0.4267539076699382,0.35041802980734277,0.0,4.0,5,60.0,14,3.5,1,2.5132276463158814,0.2899154287591747,0.5689992210354471,4.269293038620392,2.349046194406279,0.3264586835588232,0.0624217189570092,4.63370430103694,0.06530633920429904,0.3086503437550528,3.8808036451019428,1.390010992718187
7,60.0,0.4,2.0,0.8,0.4,6.0,2.4000000000000004,none,,36.55574966760834,14.959080660899271,14.703349801392074,0.0,0.43765903307888043,0.5517993456924755,0.0,4.0,6,60.0,14,3.5,1,2.6074991866986346,0.36725810001076364,0.8027845117777059,4.470597706719517,2.2852623242485985,0.33859001215474316,0.06515637336675334,4.342580092232875,0.056498397403540186,0.2971682681197388,4.097035513386014,1.428497097086861
7,60.0,0.4,2.0,0.8,0.4,6.0,2.4000000000000004,none,,36.802541966803496,15.082611446785942,14.623228805985777,0.0,0.4362050163576881,0.5383496910214467,0.0,4.0,7,60.0,14,3.5,1,2.6104670408193944,0.37856316765041,0.8147081490417155,4.46955373732714,2.271318132231696,0.35046155683569075,0.06848455963844179,4.77649654918772,0.05932978830249504,0.3102436540079281,3.701137032373826,1.4134153665088793
7,60.0,0.4,2.0,0.8,0.4,6.0,2.4000000000000004,none,,34.246475016685594,14.498349187053636,13.257131884990656,0.0,0.42602689930934207,0.3696837513631407,0.0,4.0,8,60.0,14,3.5,1,2.517022291935858,0.29695456951580573,0.5988389906463651,4.288511061483552,2.3530881891891107,0.3361803714015949,0.06372026305176655,4.744203806428032,0.06066278485949688,0.2990022401977588,3.930524520257145,1.4696048105776907
7,60.0,0.4,2.0,0.8,0.4,6.0,2.4000000000000004,none,,34.775424741202116,14.674180720522491,13.719418256838914,0.0,0.425663395129044,0.4474736459469284,0.0,4.0,9,60.0,14,3.5,1,2.5097963297428345,0.3174789874300038,0.6354536039506932,4.3056478351634935,2.314885880978157,0.3208583513998004,0.06338676526046816,4.647285473614353,0.060382690645530375,0.31000871341251496,3.9854069611494864,1.4516963615488432
7,60.0,0.4,2.0,0.8,0.4,6.0,2.4000000000000004,none,,37.97966072458632,15.016189430136127,15.065248094619536,0.0,0.45656125045438023,0.5634314794620138,0.0,4.0,10,60.0,15,3.75,1,2.698273688881621,0.42007531282086735,0.9584991018682936,4.655995108386393,2.2281443151022957,0.3083857207551848,0.06627358933048151,3.9902737615486155,0.052649665041493834,0.32157783887484226,4.188552246593023,1.4280565011100315
7,60.0,0.4,2.0,0.8,0.4,6.0,2.4000000000000004,none,,36.16540872306249,14.81291437725824,14.2452495803606,0.0,0.430752453653217,0.5281715739731007,0.0,4.0,11,60.0,14,3.5,1,2.5944454320223573,0.3445035109154161,0.7558965420276065,4.4193822343362354,2.326375841135907,0.3623467575326341,0.06592790622121616,4.548088603371248,0.06045684138226205,0.2898650662349152,4.103410585085613,1.4522301712184607
