random_seed,requested_duration_s,campaign,x_parameter,x_value,y_parameter,y_value,failure_mode,time_to_failure_s,maximum_abs_roll_deg,maximum_abs_pitch_deg,maximum_abs_angle_of_attack_deg,stall_fraction,aileron_saturation_fraction,elevator_saturation_fraction,throttle_saturation_fraction,cruise_velocity_m_s,trial,completed_duration_s,waypoints_completed,laps_completed,success,cross_track_rmse_m,altitude_rmse_m,airspeed_rmse_m_s,mean_airspeed_m_s,minimum_altitude_m,mean_throttle,mass_kg,cla,cd0,thrust_max_n,initial_speed_m_s,initial_heading_rad
7,60.0,thrust_mass,actual_thrust_scale,0.0,physical_mass_scale,1.0,ground_impact,4.68,23.120721722934462,10.841132669372882,8.73511429322665,0.0,0.4943181818181818,0.0,0.0,4.0,0,4.68,1,0.25,0,2.4239497766251,1.8090838832761196,0.24876981733646328,4.1666275727050035,-0.0026046511686897223,0.6095673180094286,0.065,4.7,0.06,0.0,4.0,1.4288992721907328
7,60.0,thrust_mass,actual_thrust_scale,0.0,physical_mass_scale,1.0,ground_impact,4.72,23.867932015479056,11.06596500230674,8.827971543787967,0.0,0.4887640449438202,0.0,0.0,4.0,1,4.72,1,0.25,0,2.481512975618459,1.8340250864516665,0.3106261275658075,4.2305349679250455,-0.003852621624202901,0.6121265420369708,0.06577673839752203,4.570952355386659,0.0551469765634464,0.0,3.9705706040793256,1.4182988268893335
7,60.0,thrust_mass,actual_thrust_scale,0.0,physical_mass_scale,1.0,ground_impact,4.32,24.206821517130905,10.744914499437996,7.893933057828442,0.0,0.5337423312883436,0.0,0.0,4.0,2,4.32,1,0.25,0,2.453045343070045,1.7623214013371675,0.353132605048162,4.296008448081441,-0.004534688778119266,0.5833823547403703,0.06428724157605824,4.1638551873761624,0.06636539174031647,0.0,4.134814580815061,1.44120695245206
7,60.0,thrust_mass,actual_thrust_scale,0.0,physical_mass_scale,1.0,ground_impact,5.08,23.68614885883567,9.999528712205171,9.853082083803995,0.0,0.4293193717277487,0.0,0.0,4.0,3,5.08,1,0.25,0,1.8188863929437302,2.985978771223386,0.23709474348284676,3.762991033621019,-0.0055429889685516265,0.929782032357983,0.06268446121923109,4.336350357380637,0.05515479194800862,0.0,4.17178330111812,1.4246835883790174
7,60.0,thrust_mass,actual_thrust_scale,0.0,physical_mass_scale,1.0,ground_impact,4.28,24.10493209670321,12.30563234238355,7.627731165357127,0.0,0.5341614906832298,0.0,0.0,4.0,4,4.28,1,0.25,0,2.438762352309314,1.7911247434646185,0.37082164658867073,4.264458802184709,-0.004266380458710481,0.6023115510904775,0.06381785595855352,4.180630719342732,0.059804869770326875,0.0,3.8014708311273617,1.422012753510219
7,60.0,thrust_mass,actual_thrust_scale,0.0,physical_mass_scale,1.0,ground_impact,4.46,22.142347880645193,11.289450283580997,7.714922065003199,0.0,0.5535714285714286,0.0,0.0,4.0,5,4.46,1,0.25,0,2.4821557119480886,1.753379228042677,0.21162832755794636,4.0907120231984475,-0.006792769103715072,0.6075571123844415,0.0624217189570092,4.63370430103694,0.06530633920429904,0.0,3.8808036451019428,1.390010992718187
7,60.0,thrust_mass,actual_thrust_scale,0.0,physical_mass_scale,1.0,ground_impact,4.76,24.31801438215443,10.629796596730761,9.084790843908129,0.0,0.4692737430167598,0.0,0.0,4.0,6,4.76,1,0.25,0,2.486130555931242,1.8361103660134335,0.3379223014488542,4.273656980564396,-0.005454103161079026,0.6051481860568165,0.06515637336675334,4.342580092232875,0.056498397403540186,0.0,4.097035513386014,1.428497097086861
7,60.0,thrust_mass,actual_thrust_scale,0.0,physical_mass_scale,1.0,ground_impact,4.08,23.920893103459296,13.106192361111082,7.774500418618462,0.0,0.551948051948052,0.0,0.0,4.0,7,4.08,1,0.25,0,2.3929012642609266,1.7690372196447284,0.38954980682485335,4.249923362603228,-0.00026422369150751017,0.5989933402512541,0.06848455963844179,4.77649654918772,0.05932978830249504,0.0,3.701137032373826,1.4134153665088793
7,60.0,thrust_mass,actual_thrust_scale,0.0,physical_mass_scale,1.0,ground_impact,4.76,22.693621040167436,11.000280197772783,9.107002243174177,0.0,0.4692737430167598,0.0,0.0,4.0,8,4.76,1,0.25,0,2.30200267700006,1.8201134793486622,0.20998443789971327,4.099152075510003,-0.006299002938347922,0.6196435738944177,0.06372026305176655,4.744203806428032,0.06066278485949688,0.0,3.930524520257145,1.4696048105776907
7,60.0,thrust_mass,actual_thrust_scale,0.0,physical_mass_scale,1.0,ground_impact,4.8,22.840341736404206,10.773772049600293,9.221671810205793,0.0,0.4696132596685083,0.0,0.0,4.0,9,4.8,1,0.25,0,2.3381333381734226,1.819132731537779,0.21454276532068062,4.115847552244879,-0.003333141855544024,0.6166620060305952,0.06338676526046816,4.647285473614353,0.060382690645530375,0.0,3.9854069611494864,1.4516963615488432
7,60.0,thrust_mass,actual_thrust_scale,0.0,physical_mass_scale,1.0,ground_impact,4.76,25.874733551800304,10.574274538391064,9.247179011116962,0.0,0.44692737430167595,0.0,0.0,4.0,10,4.76,1,0.25,0,2.5118262393764628,1.8626538599841436,0.47620068206941485,4.419815087822423,-0.004188096893830619,0.59837316440678,0.06627358933048151,3.9902737615486155,0.052649665041493834,0.0,4.188552246593023,1.4280565011100315
7,60.0,thrust_mass,actual_thrust_scale,0.0,physical_mass_scale,1.0,ground_impact,4.64,23.88994496758727,10.614289133650066,8.82401361371903,0.0,0.4857142857142857,0.0,0.0,4.0,11,4.64,1,0.25,0,2.408384797492446,1.8137346219243584,0.30561560075915095,4.242318395648176,-0.0015322499599393071,0.6005613081694171,0.06592790622121616,4.548088603371248,0.06045684138226205,0.0,4.103410585085613,1.4522301712184607
7,60.0,thrust_mass,actual_thrust_scale,0.0,physical_mass_scale,1.0,ground_impact,4.22,22.878442132831754,11.317553447659808,7.9236672788407185,0.0,0.5660377358490566,0.0,0.0,4.0,12,4.22,1,0.25,0,2.4084216656564967,1.7266024293995745,0.2658298226611679,4.169118947139932,-0.001976645911875876,0.591304206793875,0.06527407704739453,4.6863227333968975,0.06815294053044922,0.0,3.95091798696667,1.4170355867813895
7,60.0,thrust_mass,actual_thrust_scale,0.0,physical_mass_scale,1.0,ground_impact,5.2,22.853001523997314,10.588400453696513,9.996720782559818,0.0,0.40816326530612246,0.0,0.0,4.0,13,5.2,1,0.25,0,1.6390595525684906,2.9510216952045005,0.33988799025058586,3.660299222466277,-0.0014039224717601294,0.9556732335996089,0.06258078308375867,4.731953134052932,0.0507171319312291,0.0,3.9447136158850062,1.4656254103938693
7,60.0,thrust_mass,actual_thrust_scale,0.0,physical_mass_scale,1.0,ground_impact,4.18,24.0446305421863,11.53543419034478,7.860957019184008,0.0,0.554140127388535,0.0,0.0,4.0,14,4.18,1,0.25,0,2.42332634448231,1.7520566671607105,0.35866778714282344,4.276072094887316,-0.005436579154411472,0.5876998792262578,0.06492394526159549,4.2685017141274795,0.06515629612812958,0.0,3.9624706899223114,1.4287107919669706
7,60.0,thrust_mass,actual_thrust_scale,0.0,physical_mass_scale,1.0,ground_impact,4.7,24.149848837242928,10.166233860365024,9.079985744238838,0.0,0.4689265536723164,0.0,0.0,4.0,15,4.7,1,0.25,0,2.4328841474757685,1.8156443533408713,0.3266205965398944,4.273841326348528,-0.0030763974701746516,0.5944273522812171,0.06680778830559155,4.5652735761584315,0.060716124154179485,0.0,4.228529410068424,1.4492631579477007
7,60.0,thrust_mass,actual_thrust_scale,0.1,physical_mass_scale,1.0,ground_impact,5.8,24.737814494708186,10.398162825588177,9.24326665682774,0.0,0.3211009174311927,0.0,0.0,4.0,0,5.8,1,0.25,0,1.104006542424495,2.8089612118591654,0.14710775201621754,3.8542753616160854,-0.003546462568510952,0.9365424296057292,0.065,4.7,0.06,0.03,4.0,1.4288992721907328
7,60.0,thrust_mass,actual_thrust_scale,0.1,physical_mass_scale,1.0,ground_impact,5.98,25.681338103896543,10.589441888245183,9.07896884730923,0.0,0.3022222222222222,0.0,0.0044444444444444444,4.0,1,5.98,1,0.25,0,0.9655145531571309,2.776301245979012,0.06588400672446885,3.943087349305669,-0.008994528778678186,0.9303820278213251,0.06577673839752203,4.570952355386659,0.0551469765634464,0.03300062481951364,3.9705706040793256,1.4182988268893335
7,60.0,thrust_mass,actual_thrust_scale,0.1,physical_mass_scale,1.0,ground_impact,5.54,25.639678930696725,10.285247920603675,9.254098633092525,0.0,0.34134615384615385,0.0,0.0,4.0,2,5.54,1,0.25,0,1.1534281549584864,2.872381978039105,0.044757346959827214,3.956478267713282,-0.0044288367298219115,0.9178173419415165,0.06428724157605824,4.1638551873761624,0.06636539174031647,0.031143389568127063,4.134814580815061,1.44120695245206
7,60.0,thrust_mass,actual_thrust_scale,0.1,physical_mass_scale,1.0,ground_impact,6.08,25.25262051585419,9.574603928746066,9.178384350894278,0.0,0.2925764192139738,0.0,0.004366812227074236,4.0,3,6.08,1,0.25,0,0.9423477880772367,2.7396410749270133,0.10137435336968396,3.9081882507833767,-0.0053577172854405684,0.9215882606299232,0.06268446121923109,4.336350357380637,0.05515479194800862,0.02820106664684216,4.17178330111812,1.4246835883790174
7,60.0,thrust_mass,actual_thrust_scale,0.1,physical_mass_scale,1.0,ground_impact,5.6000000000000005,25.74079460305742,11.667269025398006,9.124822810123508,0.0,0.3412322274881517,0.0,0.0,4.0,4,5.6000000000000005,1,0.25,0,1.1602935414149187,2.867941231945984,0.04461445600435878,3.9566914692979656,-0.007477168839214919,0.9372879757065489,0.06381785595855352,4.180630719342732,0.059804869770326875,0.030111774343157195,3.8014708311273617,1.422012753510219
7,60.0,thrust_mass,actual_thrust_scale,0.1,physical_mass_scale,1.0,ground_impact,5.8,23.836770309431188,10.768990673534129,9.216435882809366,0.0,0.3532110091743119,0.0,0.027522935779816515,4.0,5,5.8,1,0.25,0,1.4033963661119289,2.8242424124441725,0.20616209452482376,3.7943659086832686,-0.0063084778372858915,0.9532433510599698,0.0624217189570092,4.63370430103694,0.06530633920429904,0.03086503437550528,3.8808036451019428,1.390010992718187
7,60.0,thrust_mass,actual_thrust_scale,0.1,physical_mass_scale,1.0,ground_impact,5.82,25.88291682993402,10.205588732009993,9.180491536839968,0.0,0.3105022831050228,0.0,0.0,4.0,6,5.82,1,0.25,0,0.9864153658019961,2.7975424650813516,0.04678579174496337,3.9617613547713817,-0.0004165997642342108,0.917992367360107,0.06515637336675334,4.342580092232875,0.056498397403540186,0.02971682681197388,4.097035513386014,1.428497097086861
7,60.0,thrust_mass,actual_thrust_scale,0.1,physical_mass_scale,1.0,ground_impact,5.4,25.569349425741596,12.370517557629398,9.21112813049768,0.0,0.3694581280788177,0.0,0.0,4.0,7,5.4,1,0.25,0,1.3386954867560505,2.9139829831427098,0.07372988606395352,3.926705335814192,-0.001960492033870307,0.9429244568117574,0.06848455963844179,4.77649654918772,0.05932978830249504,0.03102436540079281,3.701137032373826,1.4134153665088793
7,60.0,thrust_mass,actual_thrust_scale,0.1,physical_mass_scale,1.0,ground_impact,5.86,24.291162502479708,10.538587944193292,9.220708326739356,0.0,0.30454545454545456,0.0,0.031818181818181815,4.0,8,5.86,1,0.25,0,0.9991444368183462,2.7976383721314098,0.18614172318544653,3.815622211555055,-0.006727395839342516,0.9482671558480859,0.06372026305176655,4.744203806428032,0.06066278485949688,0.02990022401977588,3.930524520257145,1.4696048105776907
7,60.0,thrust_mass,actual_thrust_scale,0.1,physical_mass_scale,1.0,ground_impact,5.94,24.501137472088892,10.30158557790702,9.175275417776199,0.0,0.30493273542600896,0.0,0.026905829596412557,4.0,9,5.94,1,0.25,0,1.0321309509730956,2.7778831214097783,0.16438660825616236,3.8381955050573016,-0.0034315486697723482,0.9422913110925123,0.06338676526046816,4.647285473614353,0.060382690645530375,0.0310008713412515,3.9854069611494864,1.4516963615488432
7,60.0,thrust_mass,actual_thrust_scale,0.1,physical_mass_scale,1.0,ground_impact,5.9,27.45904903834157,10.136768400645176,9.052185129149777,0.0,0.2882882882882883,0.0,0.0,4.0,10,5.9,1,0.25,0,0.801962032755808,2.7864431667502148,0.12649129654474195,4.120195123626606,-0.009829572402163523,0.899846306640663,0.06627358933048151,3.9902737615486155,0.052649665041493834,0.03215778388748423,4.188552246593023,1.4280565011100315
7,60.0,thrust_mass,actual_thrust_scale,0.1,physical_mass_scale,1.0,ground_impact,5.68,25.316774881896208,10.200384710944467,9.29359616542495,0.0,0.32242990654205606,0.0,0.0,4.0,11,5.68,1,0.25,0,1.0317196429243645,2.8379650510805243,0.09292708634654252,3.9088642427839733,-0.009224632828212894,0.923746820617762,0.06592790622121616,4.548088603371248,0.06045684138226205,0.02898650662349152,4.103410585085613,1.4522301712184607
7,60.0,thrust_mass,actual_thrust_scale,0.1,physical_mass_scale,1.0,ground_impact,5.48,24.375518898535557,10.825751500829055,9.34702730164792,0.0,0.3737864077669903,0.0,0.0,4.0,12,5.48,1,0.25,0,1.4330653254136974,2.8943047953084196,0.16053472112804087,3.8397568455541164,-0.0038999676972530962,0.9410844593708737,0.06527407704739453,4.6863227333968975,0.06815294053044922,0.030304707915584414,3.95091798696667,1.4170355867813895
7,60.0,thrust_mass,actual_thrust_scale,0.1,physical_mass_scale,1.0,ground_impact,6.32,24.550492907847385,10.138887485654294,9.095301475575141,0.0,0.2647058823529412,0.0,0.07563025210084033,4.0,13,6.32,1,0.25,0,0.8166866893522704,2.6967838039614453,0.1734270010811405,3.835008936792401,-0.002260777613278489,0.9453506868271895,0.06258078308375867,4.731953134052932,0.0507171319312291,0.029305038635192376,3.9447136158850062,1.4656254103938693
7,60.0,thrust_mass,actual_thrust_scale,0.1,physical_mass_scale,1.0,ground_impact,5.44,25.528766413350226,11.02598812635591,9.258145597392563,0.0,0.36097560975609755,0.0,0.0,4.0,14,5.44,1,0.25,0,1.2702862896940172,2.90182530182448,0.05691480999232392,3.943309742962195,-0.004833701884696373,0.9288136786329448,0.06492394526159549,4.2685017141274795,0.06515629612812958,0.030190902616838745,3.9624706899223114,1.4287107919669706
7,60.0,thrust_mass,actual_thrust_scale,0.1,physical_mass_scale,1.0,ground_impact,5.64,25.4784372446217,9.772578884672397,9.357667463387434,0.0,0.32075471698113206,0.0,0.0,4.0,15,5.64,1,0.25,0,1.033270971526917,2.8376133507366528,0.08200889412068302,3.9198356520164572,-0.0026328091279138547,0.912882823115977,0.06680778830559155,4.5652735761584315,0.060716124154179485,0.02821920820822479,4.228529410068424,1.4492631579477007
7,60.0,thrust_mass,actual_thrust_scale,0.25,physical_mass_scale,1.0,ground_impact,8.36,27.44932088451302,9.789023435471915,8.093573500709228,0.0,0.48089171974522293,0.0,0.18471337579617833,4.0,0,8.36,3,0.75,0,1.4209541452538517,2.4491498516629724,0.4005326131878784,4.305205917212648,-0.00522331947797584,0.9259697736899254,0.065,4.7,0.06,0.075,4.0,1.4288992721907328
7,60.0,thrust_mass,actual_thrust_scale,0.25,physical_mass_scale,1.0,ground_impact,9.040000000000001,33.89158241285705,9.943384183554691,7.883436394193951,0.0,0.538235294117647,0.0,0.21764705882352942,4.0,1,9.040000000000001,3,0.75,0,1.870942132590134,2.3750266724968623,0.6781690563893532,4.5563514565664,-0.00031332773172295866,0.920164298006159,0.06577673839752203,4.570952355386659,0.0551469765634464,0.08250156204878409,3.9705706040793256,1.4182988268893335
7,60.0,thrust_mass,actual_thrust_scale,0.25,physical_mass_scale,1.0,ground_impact,7.96,28.45608843201925,9.65247966411663,8.062284223992696,0.0,0.4682274247491639,0.0,0.12374581939799331,4.0,2,7.96,3,0.75,0,1.4512925496127567,2.491849960129934,0.45344124265092134,4.390047302829693,-0.0010317532811110024,0.9138630519815352,0.06428724157605824,4.1638551873761624,0.06636539174031647,0.07785847392031765,4.134814580815061,1.44120695245206
7,60.0,thrust_mass,actual_thrust_scale,0.25,physical_mass_scale,1.0,ground_impact,8.64,29.462187371958805,8.990805614916232,8.10340752396898,0.0,0.5046153846153846,0.0,0.17846153846153845,4.0,3,8.64,3,0.75,0,1.4396365654872534,2.399929985846046,0.480678193846841,4.37637190923358,-0.0003392602740115028,0.9132471518589542,0.06268446121923109,4.336350357380637,0.05515479194800862,0.0705026666171054,4.17178330111812,1.4246835883790174
7,60.0,thrust_mass,actual_thrust_scale,0.25,physical_mass_scale,1.0,ground_impact,8.24,28.89483345106735,10.985621738386918,7.968044395522574,0.0,0.49032258064516127,0.0,0.18064516129032257,4.0,4,8.24,3,0.75,0,1.4047733712696109,2.4662816422930365,0.49831794761926024,4.421519648533143,-0.0031631032927687177,0.9293276117696924,0.06381785595855352,4.180630719342732,0.059804869770326875,0.07527943585789298,3.8014708311273617,1.422012753510219
7,60.0,thrust_mass,actual_thrust_scale,0.25,physical_mass_scale,1.0,ground_impact,8.72,27.841617784770445,10.09775459564506,7.9892349942071785,0.0,0.5,0.0,0.24085365853658536,4.0,5,8.72,3,0.75,0,1.4164337604156243,2.4371290300690647,0.38931366388824884,4.275613867243871,-0.0031271180611779905,0.9377513164389925,0.0624217189570092,4.63370430103694,0.06530633920429904,0.0771625859387632,3.8808036451019428,1.390010992718187
7,60.0,thrust_mass,actual_thrust_scale,0.25,physical_mass_scale,1.0,ground_impact,8.28,29.020849738767765,9.619640847863476,8.069836374215356,0.0,0.4919614147909968,0.0,0.14790996784565916,4.0,6,8.28,3,0.75,0,1.4031624439661305,2.436415914565563,0.5137022617231239,4.429288653994801,-0.006794837060965441,0.9125380542501954,0.06515637336675334,4.342580092232875,0.056498397403540186,0.0742920670299347,4.097035513386014,1.428497097086861
7,60.0,thrust_mass,actual_thrust_scale,0.25,physical_mass_scale,1.0,ground_impact,7.88,27.96769646978839,11.557623033358217,8.039976891319483,0.0,0.46621621621621623,0.0,0.16891891891891891,4.0,7,7.88,3,0.75,0,1.483157184947378,2.5200522082295325,0.4062707043968442,4.340762259907055,-0.0037380908035022815,0.9356178704081525,0.06848455963844179,4.77649654918772,0.05932978830249504,0.07756091350198202,3.701137032373826,1.4134153665088793
7,60.0,thrust_mass,actual_thrust_scale,0.25,physical_mass_scale,1.0,ground_impact,8.58,27.527098836103125,9.909463587192091,8.06502937615207,0.0,0.4813664596273292,0.0,0.2204968944099379,4.0,8,8.58,3,0.75,0,1.4153742754502556,2.4342141378595725,0.391992103304922,4.282380921081214,-0.0023600853480045684,0.9332259921114381,0.06372026305176655,4.744203806428032,0.06066278485949688,0.0747505600494397,3.930524520257145,1.4696048105776907
7,60.0,thrust_mass,actual_thrust_scale,0.25,physical_mass_scale,1.0,ground_impact,8.86,30.415813485001404,9.65343467552076,7.9982960645995735,0.0,0.5075075075075075,0.0,0.22822822822822822,4.0,9,8.86,3,0.75,0,1.5119181148227663,2.4071695597423197,0.4815436102192672,4.362596468922693,-0.0006363559728522891,0.9284314654067358,0.06338676526046816,4.647285473614353,0.060382690645530375,0.07750217835312874,3.9854069611494864,1.4516963615488432
7,60.0,thrust_mass,actual_thrust_scale,0.25,physical_mass_scale,1.0,ground_impact,8.52,34.1439578385873,9.537030202715798,7.91403209647137,0.0,0.525,0.0,0.1375,4.0,10,8.52,3,0.75,0,1.6651002842963096,2.384703229815478,0.7884733346400815,4.6968024198359055,-0.0018299488430905588,0.9007981506627508,0.06627358933048151,3.9902737615486155,0.052649665041493834,0.08039445971871056,4.188552246593023,1.4280565011100315
7,60.0,thrust_mass,actual_thrust_scale,0.25,physical_mass_scale,1.0,ground_impact,7.92,27.405252458920163,9.626586081592253,8.187398336283634,0.0,0.4563758389261745,0.0,0.1342281879194631,4.0,11,7.92,3,0.75,0,1.4988565631757857,2.496280919427329,0.37423097190521015,4.306678877328586,-0.00460862718509151,0.9174011192691541,0.06592790622121616,4.548088603371248,0.06045684138226205,0.0724662665587288,4.103410585085613,1.4522301712184607
7,60.0,thrust_mass,actual_thrust_scale,0.25,physical_mass_scale,1.0,ground_impact,7.9,26.76399444242826,10.200778256113695,8.136273899975551,0.0,0.4511784511784512,0.0,0.16498316498316498,4.0,12,7.9,3,0.75,0,1.4944334498574556,2.5346304745425474,0.29441090933461544,4.224924959467524,-0.007945914847050796,0.9335414992276686,0.06527407704739453,4.6863227333968975,0.06815294053044922,0.07576176978896103,3.95091798696667,1.4170355867813895
7,60.0,thrust_mass,actual_thrust_scale,0.25,physical_mass_scale,1.0,ground_impact,9.58,32.923887430362186,9.522431203216644,7.982451709022848,0.0,0.5388888888888889,0.0,0.2861111111111111,4.0,13,9.58,3,0.75,0,2.1345264841295113,2.351292265742754,0.5753926652900927,4.426193211342903,-0.0014798906661255438,0.9311177092228458,0.06258078308375867,4.731953134052932,0.0507171319312291,0.07326259658798094,3.9447136158850062,1.4656254103938693
7,60.0,thrust_mass,actual_thrust_scale,0.25,physical_mass_scale,1.0,ground_impact,7.82,27.77611400247918,10.40780036673009,8.082787098609566,0.0,0.45918367346938777,0.0,0.1360544217687075,4.0,14,7.82,3,0.75,0,1.4969554582523974,2.5265761399798548,0.4035404091800262,4.346787830681545,-0.00401204853094546,0.924359379137659,0.06492394526159549,4.2685017141274795,0.06515629612812958,0.07547725654209686,3.9624706899223114,1.4287107919669706
7,60.0,thrust_mass,actual_thrust_scale,0.25,physical_mass_scale,1.0,ground_impact,7.68,27.448778981653504,9.228031481665464,8.280873067254957,0.0,0.4429065743944637,0.0,0.09688581314878893,4.0,15,7.68,3,0.75,0,1.5057854661631092,2.5207641793941553,0.34494810880272525,4.287100691342241,-0.006525609336807061,0.9092841424289307,0.06680778830559155,4.5652735761584315,0.060716124154179485,0.07054802052056197,4.228529410068424,1.4492631579477007
7,60.0,thrust_mass,actual_thrust_scale,0.5,physical_mass_scale,1.0,none,,38.016733313355715,8.899118114263132,6.999488393337799,0.0,0.4910941475826972,0.0,0.0,4.0,0,60.0,15,3.75,1,2.9581032285762356,0.5447814018158224,0.9238205205225231,4.781135561265065,1.6925308401592394,0.6902031154950293,0.065,4.7,0.06,0.15,4.0,1.4288992721907328
7,60.0,thrust_mass,actual_thrust_scale,0.5,physical_mass_scale,1.0,none,,38.184530776347344,9.005261428303372,7.143610927467855,0.0,0.4910941475826972,0.0,0.0,4.0,1,60.0,15,3.75,1,3.0270244530386106,0.45483410938861507,0.9966882535924335,4.851855746299936,1.7839498104890583,0.6134251759701591,0.06577673839752203,4.570952355386659,0.0551469765634464,0.16500312409756818,3.9705706040793256,1.4182988268893335
7,60.0,thrust_mass,actual_thrust_scale,0.5,physical_mass_scale,1.0,none,,38.24423068188432,8.731376650747226,6.90938404864013,0.0,0.490003635041803,0.0,0.0,4.0,2,60.0,15,3.75,0,3.0601195620182047,0.5705829963678415,1.0112207694085953,4.891759796163003,1.6284544759051571,0.6896180866970497,0.06428724157605824,4.1638551873761624,0.06636539174031647,0.1557169478406353,4.134814580815061,1.44120695245206
7,60.0,thrust_mass,actual_thrust_scale,0.5,physical_mass_scale,1.0,none,,37.83275571897979,8.13965442428658,7.046963095778157,0.0,0.4914576517629953,0.0,0.0,4.0,3,60.0,15,3.75,1,2.953479781990274,0.5361392381107978,0.9143998477958722,4.77551951077427,1.7215785770245247,0.6782058115286331,0.06268446121923109,4.336350357380637,0.05515479194800862,0.1410053332342108,4.17178330111812,1.4246835883790174
7,60.0,thrust_mass,actual_thrust_scale,0.5,physical_mass_scale,1.0,none,,38.008561246136935,10.05313422276496,7.007584672541706,0.0,0.49073064340239914,0.0,0.0,4.0,4,60.0,15,3.75,1,3.0329601302370364,0.5033252491088467,0.9829453140488689,4.859180052654517,1.647412538526444,0.670095251476984,0.06381785595855352,4.180630719342732,0.059804869770326875,0.15055887171578597,3.8014708311273617,1.422012753510219
7,60.0,thrust_mass,actual_thrust_scale,0.5,physical_mass_scale,1.0,none,,36.87054476002402,9.121871308408549,7.023832087709032,0.0,0.48455107233733186,0.0,0.0,4.0,5,60.0,15,3.75,1,2.848841600460815,0.4264969664810321,0.8089337139044376,4.665985785649805,1.728878006453434,0.6644972478552267,0.0624217189570092,4.63370430103694,0.06530633920429904,0.1543251718775264,3.8808036451019428,1.390010992718187
7,60.0,thrust_mass,actual_thrust_scale,0.5,physical_mass_scale,1.0,none,,38.247111492120425,8.760657406691237,7.002410558044773,0.0,0.48964013086150493,0.0,0.0,4.0,6,60.0,15,3.75,0,3.0546114144812417,0.5493726159334766,1.0125802490095601,4.883895871744215,1.6873370566402652,0.6775928165850001,0.06515637336675334,4.342580092232875,0.056498397403540186,0.1485841340598694,4.097035513386014,1.428497097086861
7,60.0,thrust_mass,actual_thrust_scale,0.5,physical_mass_scale,1.0,none,,38.2963424579265,10.625423951602805,6.954761516234781,0.0,0.49073064340239914,0.0,0.0,4.0,7,60.0,15,3.75,0,3.0743444620573386,0.5693508941587492,1.0449657158337842,4.912326127364237,1.5548597639510155,0.7015639868143188,0.06848455963844179,4.77649654918772,0.05932978830249504,0.15512182700396404,3.701137032373826,1.4134153665088793
7,60.0,thrust_mass,actual_thrust_scale,0.5,physical_mass_scale,1.0,none,,37.29193375515069,8.992361901023244,7.031895394741911,0.0,0.48964013086150493,0.0,0.0,4.0,8,60.0,15,3.75,1,2.8804787656336877,0.4886864363409507,0.8533207532704807,4.705158701250912,1.731911876812621,0.6785244706101129,0.06372026305176655,4.744203806428032,0.06066278485949688,0.1495011200988794,3.930524520257145,1.4696048105776907
7,60.0,thrust_mass,actual_thrust_scale,0.5,physical_mass_scale,1.0,none,,37.08751663814534,8.714726706301294,7.068588534741517,0.0,0.48927662668120686,0.0,0.0,4.0,9,60.0,15,3.75,1,2.87925008399096,0.4235895521775589,0.8509907271797531,4.707913871554093,1.775690758464758,0.6494356382786691,0.06338676526046816,4.647285473614353,0.060382690645530375,0.15500435670625748,3.9854069611494864,1.4516963615488432
7,60.0,thrust_mass,actual_thrust_scale,0.5,physical_mass_scale,1.0,none,,38.23357971042191,8.661414761675626,7.083194557110225,0.0,0.4856415848782261,0.0,0.0,4.0,10,60.0,15,3.75,0,3.1234340811781203,0.4449619697486237,1.114427308691123,5.001739992752671,1.7423188512968864,0.6154647164253927,0.06627358933048151,3.9902737615486155,0.052649665041493834,0.16078891943742113,4.188552246593023,1.4280565011100315
7,60.0,thrust_mass,actual_thrust_scale,0.5,physical_mass_scale,1.0,none,,38.406873543042224,8.786492375823993,6.904905023725939,0.0,0.4914576517629953,0.0,0.0,4.0,11,60.0,15,3.75,1,3.0329737033825226,0.6163722868196823,0.9960760965859733,4.863920691514076,1.4658826952749793,0.7273900393118045,0.06592790622121616,4.548088603371248,0.06045684138226205,0.1449325331174576,4.103410585085613,1.4522301712184607
7,60.0,thrust_mass,actual_thrust_scale,0.5,physical_mass_scale,1.0,none,,38.327539249482385,9.286031716231573,6.91195690147073,0.0,0.49073064340239914,0.0,0.0,4.0,12,60.0,15,3.75,1,2.9760468875305923,0.6138857429380795,0.9362540401136298,4.799434485295964,1.5155348452676967,0.7281172550077576,0.06527407704739453,4.6863227333968975,0.06815294053044922,0.15152353957792206,3.95091798696667,1.4170355867813895
7,60.0,thrust_mass,actual_thrust_scale,0.5,physical_mass_scale,1.0,none,,36.91973749192888,8.624837391510129,7.195670471769003,0.0,0.48491457651763,0.0,0.0,4.0,13,60.0,15,3.75,1,2.8461703999749868,0.42466716549139055,0.8196335443145922,4.659225205834993,1.8573600323991402,0.628684590417179,0.06258078308375867,4.731953134052932,0.0507171319312291,0.14652519317596188,3.9447136158850062,1.4656254103938693
7,60.0,thrust_mass,actual_thrust_scale,0.5,physical_mass_scale,1.0,none,,38.58916174289977,9.50245321671819,6.890788582110672,0.0,0.49073064340239914,0.0,0.0,4.0,14,60.0,15,3.75,0,3.063762101962391,0.6018092946189225,1.0165146973495873,4.8943135057353535,1.5505896712046652,0.7120092194818379,0.06492394526159549,4.2685017141274795,0.06515629612812958,0.15095451308419372,3.9624706899223114,1.4287107919669706
7,60.0,thrust_mass,actual_thrust_scale,0.5,physical_mass_scale,1.0,none,,38.30614096947991,8.426324755554164,7.014147874885014,0.0,0.48964013086150493,0.0,0.014903671392221011,4.0,15,60.0,15,3.75,0,3.056279494814559,0.6544965385165075,1.0229893310388543,4.89465607545039,1.2833055612263042,0.7602931283559302,0.06680778830559155,4.5652735761584315,0.060716124154179485,0.14109604104112394,4.228529410068424,1.4492631579477007
7,60.0,thrust_mass,actual_thrust_scale,0.75,physical_mass_scale,1.0,none,,38.55126104216444,8.14295923182004,7.1630248267494725,0.0,0.4921846601235914,0.0,0.0,4.0,0,60.0,15,3.75,1,2.9767099902989607,0.47030324230016335,0.9394470488396447,4.781446401375488,1.978210480512837,0.45530003463646257,0.065,4.7,0.06,0.22499999999999998,4.0,1.4288992721907328
7,60.0,thrust_mass,actual_thrust_scale,0.75,physical_mass_scale,1.0,none,,37.205139414225556,8.21659986294113,7.142993881296358,0.0,0.4961832061068702,0.0,0.0,4.0,1,60.0,15,3.75,1,3.040977236679387,0.4269364850974376,0.9745607909198384,4.8281856851889,2.013064926722841,0.39192851248183147,0.06577673839752203,4.570952355386659,0.0551469765634464,0.24750468614635227,3.9705706040793256,1.4182988268893335
7,60.0,thrust_mass,actual_thrust_scale,0.75,physical_mass_scale,1.0,none,,38.66762780630072,7.953993841274609,7.13970396547292,0.0,0.49036713922210107,0.0,0.0,4.0,2,60.0,15,3.75,0,3.077281767777672,0.48257339206088146,1.029434710843802,4.895693217651945,1.9471702641494382,0.45828763798526695,0.06428724157605824,4.1638551873761624,0.06636539174031647,0.23357542176095297,4.134814580815061,1.44120695245206
7,60.0,thrust_mass,actual_thrust_scale,0.75,physical_mass_scale,1.0,none,,38.589712266076944,7.418157715783137,7.141995512681273,0.0,0.49036713922210107,0.0,0.0,4.0,3,60.0,15,3.75,1,2.9725634342803415,0.4657885966257408,0.9309424199426217,4.777188195298125,1.999940231354328,0.4481039452901726,0.06268446121923109,4.336350357380637,0.05515479194800862,0.2115079998513162,4.17178330111812,1.4246835883790174
7,60.0,thrust_mass,actual_thrust_scale,0.75,physical_mass_scale,1.0,none,,37.9702802777658,9.24879663357597,7.158150156294866,0.0,0.4914576517629953,0.0,0.0,4.0,4,60.0,15,3.75,1,3.045514482065989,0.42968548635281817,0.9966023616907207,4.86229934480471,1.972457829403908,0.44358011290333793,0.06381785595855352,4.180630719342732,0.059804869770326875,0.22583830757367895,3.8014708311273617,1.422012753510219
7,60.0,thrust_mass,actual_thrust_scale,0.75,physical_mass_scale,1.0,none,,36.220493356948516,8.300093638146569,6.986219341258227,0.0,0.49036713922210107,0.0,0.0,4.0,5,60.0,15,3.75,1,2.8724858996582014,0.37140521822462225,0.8106326385652988,4.660333866170561,2.080572603895769,0.43398670972128894,0.0624217189570092,4.63370430103694,0.06530633920429904,0.2314877578162896,3.8808036451019428,1.390010992718187
7,60.0,thrust_mass,actual_thrust_scale,0.75,physical_mass_scale,1.0,none,,39.046143173623676,8.028711025042183,7.111947333996711,0.0,0.4914576517629953,0.0,0.0,4.0,6,60.0,15,3.75,0,3.075088985744879,0.4801280869245007,1.0366269191740114,4.8902464029732515,1.9758224342786659,0.4504593215244413,0.06515637336675334,4.342580092232875,0.056498397403540186,0.2228762010898041,4.097035513386014,1.428497097086861
7,60.0,thrust_mass,actual_thrust_scale,0.75,physical_mass_scale,1.0,none,,39.28586915656657,9.830809944288156,7.088709550093704,0.0,0.4910941475826972,0.0,0.0,4.0,7,60.0,15,3.75,0,3.0914519467903396,0.5114132124768076,1.070418636930988,4.916696967782239,1.9563879020063493,0.46524097054981267,0.06848455963844179,4.77649654918772,0.05932978830249504,0.23268274050594606,3.701137032373826,1.4134153665088793
7,60.0,thrust_mass,actual_thrust_scale,0.75,physical_mass_scale,1.0,none,,37.357716578215964,8.213858745443206,7.2061846239416605,0.0,0.4954561977462741,0.0,0.0,4.0,8,60.0,15,3.75,1,2.899904844316512,0.4252829415365127,0.8620255518650191,4.704669215472722,1.9929846873950687,0.446604430379616,0.06372026305176655,4.744203806428032,0.06066278485949688,0.2242516801483191,3.930524520257145,1.4696048105776907
7,60.0,thrust_mass,actual_thrust_scale,0.75,physical_mass_scale,1.0,none,,36.33593036359421,7.926697050732726,6.914732288101173,0.0,0.4965467102871683,0.0,0.0,4.0,9,60.0,15,3.75,1,2.9173082064343605,0.372258829256997,0.854902399210029,4.704077243612829,2.1108788222455126,0.42288204787046973,0.06338676526046816,4.647285473614353,0.060382690645530375,0.23250653505938623,3.9854069611494864,1.4516963615488432
7,60.0,thrust_mass,actual_thrust_scale,0.75,physical_mass_scale,1.0,none,,37.50096401485735,7.91971220838415,6.916890487557749,0.0,0.48782260996001453,0.0,0.0,4.0,10,60.0,15,3.75,0,3.1243345084498384,0.40556520925074924,1.1183490653359487,4.99913676500588,2.1088535067823986,0.4017793305726453,0.06627358933048151,3.9902737615486155,0.052649665041493834,0.2411833791561317,4.188552246593023,1.4280565011100315
7,60.0,thrust_mass,actual_thrust_scale,0.75,physical_mass_scale,1.0,none,,38.98142041602824,8.065459784171091,7.074116478346172,0.0,0.4925481643038895,0.0,0.0,4.0,11,60.0,15,3.75,0,3.0660502815076516,0.5341030395586506,1.0286752329803566,4.873158041246103,2.0257210073585217,0.48131192340929596,0.06592790622121616,4.548088603371248,0.06045684138226205,0.21739879967618642,4.103410585085613,1.4522301712184607
7,60.0,thrust_mass,actual_thrust_scale,0.75,physical_mass_scale,1.0,none,,38.79703200161867,8.503399161902111,7.049340550217661,0.0,0.49291166848418755,0.0,0.0,4.0,12,60.0,15,3.75,1,3.0031378320922313,0.5218667906223767,0.9589495478941391,4.801302271648818,2.019168685020591,0.48166886107488954,0.06527407704739453,4.6863227333968975,0.06815294053044922,0.22728530936688307,3.95091798696667,1.4170355867813895
7,60.0,thrust_mass,actual_thrust_scale,0.75,physical_mass_scale,1.0,none,,36.126482852348154,7.868053949448282,7.094357725955074,0.0,0.49182115594329334,0.0,0.0,4.0,13,60.0,15,3.75,1,2.863409695236927,0.3536307574203401,0.8146542885282728,4.647887496231034,2.2378812894413342,0.40554773599165256,0.06258078308375867,4.731953134052932,0.0507171319312291,0.2197877897639428,3.9447136158850062,1.4656254103938693
7,60.0,thrust_mass,actual_thrust_scale,0.75,physical_mass_scale,1.0,none,,39.06638334879879,8.724441587830276,7.0518536053094385,0.0,0.4910941475826972,0.0,0.0,4.0,14,60.0,15,3.75,0,3.087049959918048,0.5143110739145926,1.041105216082281,4.899379309078266,1.9933518865401412,0.4732202389725706,0.06492394526159549,4.2685017141274795,0.06515629612812958,0.22643176962629058,3.9624706899223114,1.4287107919669706
7,60.0,thrust_mass,actual_thrust_scale,0.75,physical_mass_scale,1.0,none,,38.893791328520194,7.741119011072641,7.055014014211698,0.0,0.4910941475826972,0.0,0.0,4.0,15,60.0,15,3.75,0,3.086406602439622,0.5295347625282971,1.0581191430164543,4.905759322485378,1.9854554206219475,0.5040384266258049,0.06680778830559155,4.5652735761584315,0.060716124154179485,0.21164406156168591,4.228529410068424,1.4492631579477007
7,60.0,thrust_mass,actual_thrust_scale,1.0,physical_mass_scale,1.0,none,,37.79587907930803,7.49699647721879,7.357452017552144,0.0,0.49909123954925483,0.0,0.0,4.0,0,60.0,15,3.75,1,3.0068448427066494,0.4481802536073163,0.9438847367729405,4.777964581552997,1.8992020954175912,0.3305399637328825,0.065,4.7,0.06,0.3,4.0,1.4288992721907328
7,60.0,thrust_mass,actual_thrust_scale,1.0,physical_mass_scale,1.0,none,,38.42282134989025,7.546234048441775,7.46329276402375,0.0,0.49363867684478374,0.0,0.0,4.0,1,60.0,15,3.75,0,3.023873614513582,0.4850720278466039,1.0360646366109996,4.868876694133007,1.8799021726028449,0.2923188502396518,0.06577673839752203,4.570952355386659,0.0551469765634464,0.33000624819513635,3.9705706040793256,1.4182988268893335
7,60.0,thrust_mass,actual_thrust_scale,1.0,physical_mass_scale,1.0,none,,37.927795735584695,7.29167263864137,7.209551862384145,0.0,0.49581970192657215,0.0,0.0,4.0,2,60.0,15,3.75,0,3.0853173278361417,0.4482507249685003,1.0246077439594776,4.887192844284284,1.9120621898709236,0.3333673182614336,0.06428724157605824,4.1638551873761624,0.06636539174031647,0.3114338956812706,4.134814580815061,1.44120695245206
7,60.0,thrust_mass,actual_thrust_scale,1.0,physical_mass_scale,1.0,none,,37.79127146100361,6.807825510185619,7.391398267866218,0.0,0.49727371864776443,0.0,0.0,4.0,3,60.0,15,3.75,1,3.004083478023946,0.43954447020503135,0.9359474727830388,4.775685326520441,1.9040138044523378,0.3254936666770769,0.06268446121923109,4.336350357380637,0.05515479194800862,0.2820106664684216,4.17178330111812,1.4246835883790174
7,60.0,thrust_mass,actual_thrust_scale,1.0,physical_mass_scale,1.0,none,,38.09351306987996,8.551517968128435,7.247987114617736,0.0,0.49581970192657215,0.0,0.0,4.0,4,60.0,15,3.75,0,3.077444960168557,0.4516438423049945,1.012811789054319,4.866212656734445,1.914386797348367,0.3231695536298028,0.06381785595855352,4.180630719342732,0.059804869770326875,0.30111774343157194,3.8014708311273617,1.422012753510219
7,60.0,thrust_mass,actual_thrust_scale,1.0,physical_mass_scale,1.0,none,,37.40887136157045,7.601282553709942,7.451079021867155,0.0,0.5005452562704471,0.0,0.0,4.0,5,60.0,15,3.75,1,2.921069091560468,0.431253529011255,0.8568178540030031,4.682976928368606,1.9414459899612713,0.31898770336840465,0.0624217189570092,4.63370430103694,0.06530633920429904,0.3086503437550528,3.8808036451019428,1.390010992718187
7,60.0,thrust_mass,actual_thrust_scale,1.0,physical_mass_scale,1.0,none,,38.15264603280011,7.4008282305205,7.316415811813046,0.0,0.4954561977462741,0.0,0.0,4.0,6,60.0,15,3.75,0,3.0923116478562376,0.45750355360989386,1.0313005430470406,4.881140608017379,1.892815165213624,0.3263498949854678,0.06515637336675334,4.342580092232875,0.056498397403540186,0.2971682681197388,4.097035513386014,1.428497097086861
7,60.0,thrust_mass,actual_thrust_scale,1.0,physical_mass_scale,1.0,none,,38.17358040093699,9.139180044325693,7.261083848388232,0.0,0.4961832061068702,0.0,0.0,4.0,7,60.0,15,3.75,0,3.094090153801828,0.4773404939734211,1.0555224047813336,4.901249308455397,1.9108843472449275,0.3367920001408217,0.06848455963844179,4.77649654918772,0.05932978830249504,0.3102436540079281,3.701137032373826,1.4134153665088793
7,60.0,thrust_mass,actual_thrust_scale,1.0,physical_mass_scale,1.0,none,,37.614582253468676,7.550234228084077,7.4458088786595225,0.0,0.49981824790985097,0.0,0.0,4.0,8,60.0,15,3.75,1,2.943202655923616,0.43774108858764393,0.884589005256703,4.710257342360999,1.911865975126324,0.32529728654810725,0.06372026305176655,4.744203806428032,0.06066278485949688,0.2990022401977588,3.930524520257145,1.4696048105776907
7,60.0,thrust_mass,actual_thrust_scale,1.0,physical_mass_scale,1.0,none,,37.70789786589858,7.258310118284247,7.484614532181983,0.0,0.4994547437295529,0.0,0.0,4.0,9,60.0,15,3.75,1,2.9632696144602537,0.44751969557339555,0.9024679762631449,4.726482515394091,1.9125618728812634,0.3107950723118515,0.06338676526046816,4.647285473614353,0.060382690645530375,0.31000871341251496,3.9854069611494864,1.4516963615488432
7,60.0,thrust_mass,actual_thrust_scale,1.0,physical_mass_scale,1.0,none,,38.80135851039823,7.287255229098109,7.421386337110419,0.0,0.4827335514358415,0.0,0.0,4.0,10,60.0,15,3.75,0,3.0740331854265808,0.4843031436960388,1.1579239981634306,5.018817515895465,1.8753435812349195,0.2964161150262505,0.06627358933048151,3.9902737615486155,0.052649665041493834,0.32157783887484226,4.188552246593023,1.4280565011100315
7,60.0,thrust_mass,actual_thrust_scale,1.0,physical_mass_scale,1.0,none,,37.854773717861136,7.446587196442676,7.234492818101672,0.0,0.4965467102871683,0.0,0.0,4.0,11,60.0,15,3.75,0,3.0671877524096973,0.44922978838238137,1.0023149927226858,4.852977347498408,1.9077627286949659,0.35041350458596265,0.06592790622121616,4.548088603371248,0.06045684138226205,0.2898650662349152,4.103410585085613,1.4522301712184607
7,60.0,thrust_mass,actual_thrust_scale,1.0,physical_mass_scale,1.0,none,,37.555449225124384,7.834011130080722,7.242142221781639,0.0,0.500181752090149,0.0,0.0,4.0,12,60.0,15,3.75,1,3.013962202106787,0.43757654432030757,0.9393682238298577,4.785597518615988,1.9214555320583389,0.35058995988021513,0.06527407704739453,4.6863227333968975,0.06815294053044922,0.3030470791558441,3.95091798696667,1.4170355867813895
7,60.0,thrust_mass,actual_thrust_scale,1.0,physical_mass_scale,1.0,none,,37.72523538469275,7.223663580072885,7.490096124247743,0.0,0.4994547437295529,0.0,0.0,4.0,13,60.0,15,3.75,1,2.9182760496714453,0.4419038360228364,0.8703621160832554,4.678362685291551,1.9395554152680736,0.2985145215601927,0.06258078308375867,4.731953134052932,0.0507171319312291,0.29305038635192376,3.9447136158850062,1.4656254103938693
7,60.0,thrust_mass,actual_thrust_scale,1.0,physical_mass_scale,1.0,none,,37.91579518211324,8.053852978721169,7.133914184853423,0.0,0.495092693565976,0.0,0.0,4.0,14,60.0,15,3.75,0,3.0866997647360854,0.4459832798492485,1.0212635406960098,4.882802031947029,1.9230574877824735,0.3437733444293715,0.06492394526159549,4.2685017141274795,0.06515629612812958,0.30190902616838744,3.9624706899223114,1.4287107919669706
7,60.0,thrust_mass,actual_thrust_scale,1.0,physical_mass_scale,1.0,none,,37.72565005407917,7.150638276395628,7.168602852299648,0.0,0.49581970192657215,0.0,0.0,4.0,15,60.0,15,3.75,0,3.0784455968715716,0.4479752810662787,1.0244451650090314,4.88192416129557,1.9465763683112869,0.36676094250362967,0.06680778830559155,4.5652735761584315,0.060716124154179485,0.2821920820822479,4.228529410068424,1.4492631579477007
7,60.0,thrust_mass,actual_thrust_scale,0.0,physical_mass_scale,1.25,ground_impact,3.42,28.54568854356595,13.22031719659013,8.603589074479757,0.0,0.6201550387596899,0.0,0.0,4.0,0,3.42,1,0.25,0,2.3426200735870752,1.743376650265173,0.7916800648390235,4.679392038298662,-0.005865846514637835,0.5511621859334032,0.08125,4.7,0.06,0.0,4.0,1.4288992721907328
7,60.0,thrust_mass,actual_thrust_scale,0.0,physical_mass_scale,1.25,ground_impact,3.38,29.422340573292086,13.694737086101664,8.559614056707705,0.0,0.6220472440944882,0.0,0.0,4.0,1,3.38,1,0.25,0,2.382954007519185,1.7602283745480038,0.8775075989193661,4.756456230936694,-0.004643479185592962,0.55088731634604,0.08222092299690253,4.570952355386659,0.0551469765634464,0.0,3.9705706040793256,1.4182988268893335
7,60.0,thrust_mass,actual_thrust_scale,0.0,physical_mass_scale,1.25,ground_impact,3.2,29.80811115330284,13.104573800054688,8.896261481370493,0.0,0.6446280991735537,0.0,0.0,4.0,2,3.2,1,0.25,0,2.242048496548986,1.7184654151295848,0.9048378586681292,4.798285944530162,-0.004691933255021041,0.5335822789345268,0.0803590519700728,4.1638551873761624,0.06636539174031647,0.0,4.134814580815061,1.44120695245206
7,60.0,thrust_mass,actual_thrust_scale,0.0,physical_mass_scale,1.25,ground_impact,3.64,28.595095634141042,11.876201981005366,8.286378264376452,0.0,0.5912408759124088,0.0,0.0,4.0,3,3.64,1,0.25,0,2.4954278210016803,1.7424278114373424,0.8121628588211883,4.732319070267521,-0.007816097637277782,0.5488151316556499,0.07835557652403886,4.336350357380637,0.05515479194800862,0.0,4.17178330111812,1.4246835883790174
7,60.0,thrust_mass,actual_thrust_scale,0.0,physical_mass_scale,1.25,ground_impact,3.2,30.08008502612786,15.6387043076807,8.854703939993403,0.0,0.628099173553719,0.0,0.0,4.0,4,3.2,1,0.25,0,2.247084958066825,1.8062392354229677,0.9436076939331263,4.782910498630563,-0.014151447339039232,0.5550680822288334,0.0797723199481919,4.180630719342732,0.059804869770326875,0.0,3.8014708311273617,1.422012753510219
7,60.0,thrust_mass,actual_thrust_scale,0.0,physical_mass_scale,1.25,ground_impact,3.44,27.61642998532561,13.899267829821694,8.615067066684496,0.0,0.6384615384615384,0.0,0.0,4.0,5,3.44,1,0.25,0,2.3305948752608185,1.7546778870756683,0.7019569806467079,4.57573726707695,-0.012383093011310763,0.5606776816717604,0.0780271486962615,4.63370430103694,0.06530633920429904,0.0,3.8808036451019428,1.390010992718187
7,60.0,thrust_mass,actual_thrust_scale,0.0,physical_mass_scale,1.25,ground_impact,3.36,29.727028907108437,12.948778982901782,8.640640305855902,0.0,0.6220472440944882,0.0,0.0,4.0,6,3.36,1,0.25,0,2.399016306577312,1.7343434013779366,0.9075268515897066,4.803699429120507,-0.0008234791231447568,0.5416288657196539,0.08144546670844167,4.342580092232875,0.056498397403540186,0.0,4.097035513386014,1.428497097086861
7,60.0,thrust_mass,actual_thrust_scale,0.0,physical_mass_scale,1.25,ground_impact,3.08,30.44841881978663,16.670010471143303,9.076909843640482,0.0,0.646551724137931,0.0,0.0,4.0,7,3.08,1,0.25,0,2.1141052395694913,1.8260364911127105,0.9806040649192973,4.780842453796302,-0.014239137306551401,0.5565811717307088,0.08560569954805224,4.77649654918772,0.05932978830249504,0.0,3.701137032373826,1.4134153665088793
7,60.0,thrust_mass,actual_thrust_scale,0.0,physical_mass_scale,1.25,ground_impact,3.48,27.928687325931122,13.457712411507982,8.500543886180672,0.0,0.5877862595419847,0.0,0.0,4.0,8,3.48,1,0.25,0,2.282340345949458,1.7601466507589436,0.7435853690505208,4.623807657545917,-0.0030265303521372546,0.558968361470635,0.07965032881470818,4.744203806428032,0.06066278485949688,0.0,3.930524520257145,1.4696048105776907
7,60.0,thrust_mass,actual_thrust_scale,0.0,physical_mass_scale,1.25,ground_impact,3.5,28.058374737785968,13.071872332866949,8.498327313530304,0.0,0.5984848484848485,0.0,0.0,4.0,9,3.5,1,0.25,0,2.323820524869755,1.751336834439279,0.7504122105503676,4.640925113799459,-0.005214206384398417,0.5558222359165722,0.0792334565755852,4.647285473614353,0.060382690645530375,0.0,3.9854069611494864,1.4516963615488432
7,60.0,thrust_mass,actual_thrust_scale,0.0,physical_mass_scale,1.25,ground_impact,3.24,31.461253752808645,12.979655077894552,8.708797762512939,0.0,0.6311475409836066,0.0,0.0,4.0,10,3.24,1,0.25,0,2.411157979938789,1.7421660242199022,1.0832197860502806,4.977072519888875,-0.0127778590270009,0.5315790872536948,0.08284198666310189,3.9902737615486155,0.052649665041493834,0.0,4.188552246593023,1.4280565011100315
7,60.0,thrust_mass,actual_thrust_scale,0.0,physical_mass_scale,1.25,ground_impact,3.34,29.301457527710344,12.867046573311857,8.686757032907451,0.0,0.6190476190476191,0.0,0.0,4.0,11,3.34,1,0.25,0,2.3198886374518457,1.73268367546971,0.8697322577698502,4.764910849021574,-0.010640058945468451,0.5413019794578812,0.0824098827765202,4.548088603371248,0.06045684138226205,0.0,4.103410585085613,1.4522301712184607
7,60.0,thrust_mass,actual_thrust_scale,0.0,physical_mass_scale,1.25,ground_impact,3.2600000000000002,28.68454104261181,13.989271273439682,8.884663379771323,0.0,0.6504065040650406,0.0,0.0,4.0,12,3.2600000000000002,1,0.25,0,2.2169828265978184,1.747389364391051,0.7945508101125018,4.664869884169211,-0.012910469341122943,0.5489164385095924,0.08159259630924316,4.6863227333968975,0.06815294053044922,0.0,3.95091798696667,1.4170355867813895
7,60.0,thrust_mass,actual_thrust_scale,0.0,physical_mass_scale,1.25,ground_impact,3.88,27.624949518946845,12.783879238042745,7.996194599112756,0.0,0.5273972602739726,0.0,0.0,4.0,13,3.88,1,0.25,0,2.4144835309464634,1.8237331348665458,0.7163047665120629,4.61710773662083,-0.007403252273890775,0.576639458309975,0.07822597885469834,4.731953134052932,0.0507171319312291,0.0,3.9447136158850062,1.4656254103938693
7,60.0,thrust_mass,actual_thrust_scale,0.0,physical_mass_scale,1.25,ground_impact,3.16,29.945005532114205,14.457453935586933,8.948855447079772,0.0,0.6554621848739496,0.0,0.0,4.0,14,3.16,1,0.25,0,2.2160969976722815,1.7594297605099922,0.9162302542190336,4.781133438470815,-0.012448457459673445,0.5434132434581233,0.08115493157699437,4.2685017141274795,0.06515629612812958,0.0,3.9624706899223114,1.4287107919669706
7,60.0,thrust_mass,actual_thrust_scale,0.0,physical_mass_scale,1.25,ground_impact,3.34,29.424809804835395,12.121653571441268,8.643280936099547,0.0,0.626984126984127,0.0,0.0,4.0,15,3.34,1,0.25,0,2.3524398476653823,1.7043663135074756,0.8858221931269095,4.7962023548721175,-0.005539200553246578,0.5330044340650041,0.08350973538198943,4.5652735761584315,0.060716124154179485,0.0,4.228529410068424,1.4492631579477007
7,60.0,thrust_mass,actual_thrust_scale,0.1,physical_mass_scale,1.25,ground_impact,4.22,29.08387514798822,12.608172184825277,7.692768522083204,0.0,0.4968553459119497,0.0,0.0,4.0,0,4.22,1,0.25,0,2.587674036221465,1.924360041867012,0.8413467863889091,4.751210463554493,-0.0021152680186547444,0.5914101604681841,0.08125,4.7,0.06,0.03,4.0,1.4288992721907328
7,60.0,thrust_mass,actual_thrust_scale,0.1,physical_mass_scale,1.25,ground_impact,4.42,30.124509291978313,13.006089581919344,7.871902745368061,0.0,0.463855421686747,0.0,0.0,4.0,1,4.42,1,0.25,0,2.6355530269382292,1.994739098420874,0.924122139931102,4.828432504211076,-0.0007353903797661446,0.6038414020953151,0.08222092299690253,4.570952355386659,0.0551469765634464,0.03300062481951364,3.9705706040793256,1.4182988268893335
7,60.0,thrust_mass,actual_thrust_scale,0.1,physical_mass_scale,1.25,ground_impact,3.66,30.301704860303186,12.467680704254661,8.229801616595536,0.0,0.5652173913043478,0.0,0.0,4.0,2,3.66,1,0.25,0,2.5610319332296867,1.8067458899621087,0.9799122911310846,4.886347771407663,-0.00649374349859766,0.5543440367514089,0.0803590519700728,4.1638551873761624,0.06636539174031647,0.031143389568127063,4.134814580815061,1.44120695245206
7,60.0,thrust_mass,actual_thrust_scale,0.1,physical_mass_scale,1.25,ground_impact,4.78,29.31287944225775,11.453450455092574,8.803572417955,0.0,0.4111111111111111,0.0,0.0,4.0,3,4.78,1,0.25,0,2.6044705127786756,1.9821397345604164,0.8241233644817849,4.752082604716203,-0.0024684104859060913,0.6058331419088278,0.07835557652403886,4.336350357380637,0.05515479194800862,0.02820106664684216,4.17178330111812,1.4246835883790174
7,60.0,thrust_mass,actual_thrust_scale,0.1,physical_mass_scale,1.25,ground_impact,3.68,30.769732336458574,14.892969939639055,7.956948496048883,0.0,0.539568345323741,0.0,0.0,4.0,4,3.68,1,0.25,0,2.5497114252963926,1.8871689416166235,1.0094184584395236,4.871830719004638,-0.004082751017638153,0.5762784021019214,0.0797723199481919,4.180630719342732,0.059804869770326875,0.030111774343157195,3.8014708311273617,1.422012753510219
7,60.0,thrust_mass,actual_thrust_scale,0.1,physical_mass_scale,1.25,ground_impact,4.08,28.335908138562296,13.182232785540709,7.735147224213969,0.0,0.525974025974026,0.0,0.0,4.0,5,4.08,1,0.25,0,2.6048839862515627,1.8768354240613083,0.7646887670565906,4.660811845578688,-0.00443450114224996,0.5900974565619381,0.0780271486962615,4.63370430103694,0.06530633920429904,0.03086503437550528,3.8808036451019428,1.390010992718187
7,60.0,thrust_mass,actual_thrust_scale,0.1,physical_mass_scale,1.25,ground_impact,4.26,30.251776405208588,12.379162709244527,7.640479332691681,0.0,0.4875,0.0,0.0,4.0,6,4.26,1,0.25,0,2.652234232723595,1.9551177992470583,0.9612021352088054,4.877857621272008,-0.0025228141020521722,0.5885096413126117,0.08144546670844167,4.342580092232875,0.056498397403540186,0.02971682681197388,4.097035513386014,1.428497097086861
7,60.0,thrust_mass,actual_thrust_scale,0.1,physical_mass_scale,1.25,ground_impact,3.44,31.045713829045244,15.911960746429415,8.326089132733838,0.0,0.5769230769230769,0.0,0.0,4.0,7,3.44,1,0.25,0,2.44206201836303,1.867119372002239,1.0349307550392852,4.8606929020404,-0.0010038774396309673,0.5708856333942329,0.08560569954805224,4.77649654918772,0.05932978830249504,0.03102436540079281,3.701137032373826,1.4134153665088793
7,60.0,thrust_mass,actual_thrust_scale,0.1,physical_mass_scale,1.25,ground_impact,4.42,28.472201149680203,12.813040949664297,8.12580391517922,0.0,0.4578313253012048,0.0,0.0,4.0,8,4.42,1,0.25,0,2.473628944422024,1.9612808646689122,0.7672220928143338,4.671609516607091,-0.003637944506946901,0.606238959185745,0.07965032881470818,4.744203806428032,0.06066278485949688,0.02990022401977588,3.930524520257145,1.4696048105776907
7,60.0,thrust_mass,actual_thrust_scale,0.1,physical_mass_scale,1.25,ground_impact,4.5,28.615875922308177,12.440540270661847,8.160401288816647,0.0,0.4556213017751479,0.0,0.0,4.0,9,4.5,1,0.25,0,2.549380704204517,1.9630848956059377,0.77628775152302,4.689240000273288,-0.00401570306291583,0.605992504295682,0.0792334565755852,4.647285473614353,0.060382690645530375,0.0310008713412515,3.9854069611494864,1.4516963615488432
7,60.0,thrust_mass,actual_thrust_scale,0.1,physical_mass_scale,1.25,ground_impact,4.28,31.95169730904879,12.38535692798259,7.621430494887834,0.0,0.4720496894409938,0.0,0.0,4.0,10,4.28,1,0.25,0,2.7306202562232174,2.003364775127448,1.1394289179091994,5.056410401667391,-0.0017926432504749338,0.5867549944327749,0.08284198666310189,3.9902737615486155,0.052649665041493834,0.03215778388748423,4.188552246593023,1.4280565011100315
7,60.0,thrust_mass,actual_thrust_scale,0.1,physical_mass_scale,1.25,ground_impact,4.0,29.790214227030866,12.31566910096045,7.93848440154584,0.0,0.5099337748344371,0.0,0.0,4.0,11,4.0,1,0.25,0,2.5727427636780527,1.889776254498797,0.9318070648227408,4.84463531982103,-0.0014649851568965871,0.5746292590189764,0.0824098827765202,4.548088603371248,0.06045684138226205,0.02898650662349152,4.103410585085613,1.4522301712184607
7,60.0,thrust_mass,actual_thrust_scale,0.1,physical_mass_scale,1.25,ground_impact,3.64,29.182752286498733,13.303485835249221,8.222632428924186,0.0,0.5766423357664233,0.0,0.0,4.0,12,3.64,1,0.25,0,2.5064575822831565,1.7960222726334725,0.854760947274522,4.741053912014242,-0.00037312800564348776,0.5637413599331993,0.08159259630924316,4.6863227333968975,0.06815294053044922,0.030304707915584414,3.95091798696667,1.4170355867813895
7,60.0,thrust_mass,actual_thrust_scale,0.1,physical_mass_scale,1.25,ground_impact,5.0200000000000005,28.475828940615354,12.224023928196901,9.154524785107823,0.0,0.37037037037037035,0.0,0.0,4.0,13,5.0200000000000005,1,0.25,0,1.121160371644176,2.9964461621691347,0.18600385248982407,4.186002641886098,-0.0009732487370916719,0.9057048365145245,0.07822597885469834,4.731953134052932,0.0507171319312291,0.029305038635192376,3.9447136158850062,1.4656254103938693
7,60.0,thrust_mass,actual_thrust_scale,0.1,physical_mass_scale,1.25,ground_impact,3.52,30.536481065485336,13.756496716861516,8.337955924373846,0.0,0.5789473684210527,0.0,0.0,4.0,14,3.52,1,0.25,0,2.490790814824931,1.81142316419779,0.9881024322844089,4.866997800133097,-0.00018157636467004863,0.5577555610512682,0.08115493157699437,4.2685017141274795,0.06515629612812958,0.030190902616838745,3.9624706899223114,1.4287107919669706
7,60.0,thrust_mass,actual_thrust_scale,0.1,physical_mass_scale,1.25,ground_impact,3.96,29.863679923459497,11.675190822567563,8.008835387163934,0.0,0.5234899328859061,0.0,0.0,4.0,15,3.96,1,0.25,0,2.5972796236105204,1.8616016630934735,0.954894018346159,4.878424150280447,-0.000838082178459233,0.5647804333596982,0.08350973538198943,4.5652735761584315,0.060716124154179485,0.02821920820822479,4.228529410068424,1.4492631579477007
7,60.0,thrust_mass,actual_thrust_scale,0.25,physical_mass_scale,1.25,ground_impact,6.0600000000000005,30.669397950155776,11.886185792225138,8.39208141499533,0.0,0.36403508771929827,0.0,0.0,4.0,0,6.0600000000000005,2,0.5,0,1.2872313407259321,2.7926822344763096,0.46928866486330856,4.4662936194905845,-0.00883665090071446,0.8995655856609887,0.08125,4.7,0.06,0.075,4.0,1.4288992721907328
7,60.0,thrust_mass,actual_thrust_scale,0.25,physical_mass_scale,1.25,ground_impact,6.38,31.892278106788936,12.178280126688222,8.205621743960773,0.0,0.4125,0.0,0.0,4.0,1,6.38,2,0.5,0,1.167799279489962,2.707236266439925,0.6215380756507574,4.612236544580381,-0.0069435162652636655,0.8955308067677623,0.08222092299690253,4.570952355386659,0.0551469765634464,0.08250156204878409,3.9705706040793256,1.4182988268893335
7,60.0,thrust_mass,actual_thrust_scale,0.25,physical_mass_scale,1.25,ground_impact,5.74,31.5610907226533,11.738065623290654,8.384831238467067,0.0,0.3425925925925926,0.0,0.0,4.0,2,5.74,2,0.5,0,1.4238784138350795,2.847892350812847,0.5739948758504072,4.572840792283654,-0.0003222092404428535,0.8857366751169109,0.0803590519700728,4.1638551873761624,0.06636539174031647,0.07785847392031765,4.134814580815061,1.44120695245206
7,60.0,thrust_mass,actual_thrust_scale,0.25,physical_mass_scale,1.25,ground_impact,6.32,30.9626554426235,10.982228254492478,8.387518976931382,0.0,0.3949579831932773,0.0,0.0,4.0,3,6.32,2,0.5,0,1.1479340857713465,2.716047709879418,0.5318450542433144,4.524652058785255,-0.00516275921448477,0.8882884337943832,0.07835557652403886,4.336350357380637,0.05515479194800862,0.0705026666171054,4.17178330111812,1.4246835883790174
7,60.0,thrust_mass,actual_thrust_scale,0.25,physical_mass_scale,1.25,ground_impact,5.84,32.24695683068136,13.907116638719202,8.276205825310099,0.0,0.35454545454545455,0.0,0.0,4.0,4,5.84,2,0.5,0,1.3389103775424327,2.840304862522597,0.5804667314369858,4.5788965590879975,-0.0045848389783197125,0.9015584501355266,0.0797723199481919,4.180630719342732,0.059804869770326875,0.07527943585789298,3.8014708311273617,1.422012753510219
7,60.0,thrust_mass,actual_thrust_scale,0.25,physical_mass_scale,1.25,ground_impact,6.16,30.19048717547695,12.309577064783678,8.308170664817878,0.0,0.36637931034482757,0.0,0.0,4.0,5,6.16,2,0.5,0,1.268200592769875,2.783043275014023,0.41000368154626526,4.4066839546534515,-0.001940997251888725,0.9112601749827323,0.0780271486962615,4.63370430103694,0.06530633920429904,0.0771625859387632,3.8808036451019428,1.390010992718187
7,60.0,thrust_mass,actual_thrust_scale,0.25,physical_mass_scale,1.25,ground_impact,6.0600000000000005,31.775243955373192,11.720399040056831,8.36727053607563,0.0,0.3815789473684211,0.0,0.0,4.0,6,6.0600000000000005,2,0.5,0,1.2395863007725876,2.7799353168278564,0.5882092388358614,4.584836283190923,-0.0065813468142433395,0.8883469526684217,0.08144546670844167,4.342580092232875,0.056498397403540186,0.0742920670299347,4.097035513386014,1.428497097086861
7,60.0,thrust_mass,actual_thrust_scale,0.25,physical_mass_scale,1.25,ground_impact,5.54,32.38635876796943,14.890078073779769,8.353565386876163,0.0,0.3173076923076923,0.0,0.0,4.0,7,5.54,2,0.5,0,1.2877912365910933,2.897239913207721,0.5255800023527742,4.525239803970325,-0.003087941165666165,0.9037855814069423,0.08560569954805224,4.77649654918772,0.05932978830249504,0.07756091350198202,3.701137032373826,1.4134153665088793
7,60.0,thrust_mass,actual_thrust_scale,0.25,physical_mass_scale,1.25,ground_impact,6.16,30.057195604554753,12.043206793874864,8.36822069410617,0.0,0.35344827586206895,0.0,0.0,4.0,8,6.16,2,0.5,0,1.215533405103638,2.774579383460273,0.43362357265771545,4.429459025776597,-0.005980738549409066,0.9064924363453306,0.07965032881470818,4.744203806428032,0.06066278485949688,0.0747505600494397,3.930524520257145,1.4696048105776907
7,60.0,thrust_mass,actual_thrust_scale,0.25,physical_mass_scale,1.25,ground_impact,6.32,30.36695061551134,11.718402945575868,8.300543083279283,0.0,0.37815126050420167,0.0,0.0,4.0,9,6.32,2,0.5,0,1.127857539370096,2.736847053524024,0.4746224405368327,4.4685475060136355,-0.0017481139640759258,0.9029698939733883,0.0792334565755852,4.647285473614353,0.060382690645530375,0.07750217835312874,3.9854069611494864,1.4516963615488432
7,60.0,thrust_mass,actual_thrust_scale,0.25,physical_mass_scale,1.25,ground_impact,6.16,33.251878242075456,11.7065346731088,8.295218034429993,0.0,0.41810344827586204,0.0,0.0,4.0,10,6.16,2,0.5,0,1.228867550715765,2.7236901940281086,0.7986648508177995,4.791613058509295,-0.0004067694777076022,0.8744855901400923,0.08284198666310189,3.9902737615486155,0.052649665041493834,0.08039445971871056,4.188552246593023,1.4280565011100315
7,60.0,thrust_mass,actual_thrust_scale,0.25,physical_mass_scale,1.25,ground_impact,5.8,31.06790357041194,11.676654045835827,8.47635528576974,0.0,0.3394495412844037,0.0,0.0,4.0,11,5.8,2,0.5,0,1.3974768403287976,2.835558699896546,0.5055601136096509,4.504188998064093,-0.00557266196177532,0.889680513566352,0.0824098827765202,4.548088603371248,0.06045684138226205,0.0724662665587288,4.103410585085613,1.4522301712184607
7,60.0,thrust_mass,actual_thrust_scale,0.25,physical_mass_scale,1.25,ground_impact,5.62,30.53473775738721,12.453035352693684,8.458463547905728,0.0,0.3080568720379147,0.0,0.0,4.0,12,5.62,2,0.5,0,1.072406822945224,2.881907035647419,0.4284834502664535,4.428013506180754,-0.007027317848568377,0.9005521507049853,0.08159259630924316,4.6863227333968975,0.06815294053044922,0.07576176978896103,3.95091798696667,1.4170355867813895
7,60.0,thrust_mass,actual_thrust_scale,0.25,physical_mass_scale,1.25,ground_impact,6.7,30.231590708688948,11.582107352448375,8.270547189969362,0.0,0.4087301587301587,0.0,0.003968253968253968,4.0,13,6.7,2,0.5,0,1.1773821717686688,2.6438403856796935,0.5011314703070331,4.483424544598194,-0.006108706271704423,0.9049855094643473,0.07822597885469834,4.731953134052932,0.0507171319312291,0.07326259658798094,3.9447136158850062,1.4656254103938693
7,60.0,thrust_mass,actual_thrust_scale,0.25,physical_mass_scale,1.25,ground_impact,5.5600000000000005,31.744578837549447,12.866088815240799,8.398308361689114,0.0,0.32057416267942584,0.0,0.0,4.0,14,5.5600000000000005,2,0.5,0,1.3162275313560718,2.8860183887771167,0.5465458654594818,4.546049768273768,-0.0004263715548641252,0.8924769880251048,0.08115493157699437,4.2685017141274795,0.06515629612812958,0.07547725654209686,3.9624706899223114,1.4287107919669706
