random_seed,requested_duration_s,campaign,boundary_label,altitude_gain_scale,protection_low_m_s,dive_slope,physical_mass_scale,actual_thrust_scale,failure_mode,time_to_failure_s,maximum_abs_roll_deg,maximum_abs_pitch_deg,maximum_abs_angle_of_attack_deg,stall_fraction,aileron_saturation_fraction,elevator_saturation_fraction,throttle_saturation_fraction,cruise_velocity_m_s,trial,completed_duration_s,waypoints_completed,laps_completed,success,cross_track_rmse_m,altitude_rmse_m,airspeed_rmse_m_s,mean_airspeed_m_s,minimum_altitude_m,mean_throttle,mass_kg,cla,cd0,thrust_max_n,initial_speed_m_s,initial_heading_rad
7,60.0,altitude_feedback,gain 0.1×,0.1,2.6,0.06,1.0,1.0,none,,36.70836529410774,7.512069248843076,7.327077628507221,0.0,0.49073064340239914,0.0,0.0,2.0,0,60.0,15,3.75,0,2.992693826072837,0.6521273061301511,2.832738574808531,4.785352499324276,1.8786516176962564,0.33412121015558954,0.065,4.7,0.06,0.3,4.0,1.4288992721907328
7,60.0,altitude_feedback,gain 0.1×,0.1,2.6,0.06,1.0,1.0,none,,37.11772207675076,7.561908815592438,7.457820963810438,0.0,0.49036713922210107,0.0,0.0,2.0,1,60.0,15,3.75,0,3.0630109605929,0.6325116602328782,2.914602931348454,4.865186839839296,1.891366211195526,0.2941536383787921,0.06577673839752203,4.570952355386659,0.0551469765634464,0.33000624819513635,3.9705706040793256,1.4182988268893335
7,60.0,altitude_feedback,gain 0.1×,0.1,2.6,0.06,1.0,1.0,none,,37.13342979488063,7.306822421939993,7.227185803919795,0.0,0.4870956015994184,0.0,0.0,2.0,2,60.0,15,3.75,0,3.072264492021997,0.6746148871044491,2.9369638617214053,4.894349540471651,1.8639609408666358,0.3358508163102784,0.06428724157605824,4.1638551873761624,0.06636539174031647,0.3114338956812706,4.134814580815061,1.44120695245206
7,60.0,altitude_feedback,gain 0.1×,0.1,2.6,0.06,1.0,1.0,none,,36.70025231785578,6.819190090896148,7.378783238402193,0.0,0.4910941475826972,0.0,0.0,2.0,3,60.0,15,3.75,0,2.983449693019314,0.648200337833592,2.8276880599258036,4.782046650895439,1.89066032407743,0.32829899228528053,0.06268446121923109,4.336350357380637,0.05515479194800862,0.2820106664684216,4.17178330111812,1.4246835883790174
7,60.0,altitude_feedback,gain 0.1×,0.1,2.6,0.06,1.0,1.0,none,,37.04733921532626,8.571288100972431,7.314989786386623,0.0,0.4881861141403126,0.0,0.0,2.0,4,60.0,15,3.75,0,3.055175119685807,0.6521424001828355,2.9165746906427934,4.8724716215588035,1.8810208676729783,0.3263647399462348,0.06381785595855352,4.180630719342732,0.059804869770326875,0.30111774343157194,3.8014708311273617,1.422012753510219
7,60.0,altitude_feedback,gain 0.1×,0.1,2.6,0.06,1.0,1.0,none,,36.26056216279085,7.61930408570112,7.328066415680208,0.0,0.49036713922210107,0.0,0.0,2.0,5,60.0,15,3.75,0,2.8980811763998586,0.6242550639594332,2.7320352778245716,4.687095402507774,1.9148571839398325,0.3227103412830407,0.0624217189570092,4.63370430103694,0.06530633920429904,0.3086503437550528,3.8808036451019428,1.390010992718187
7,60.0,altitude_feedback,gain 0.1×,0.1,2.6,0.06,1.0,1.0,none,,37.15402268157665,7.4153448598884655,7.337310080377133,0.0,0.4881861141403126,0.0,0.0,2.0,6,60.0,15,3.75,0,3.0694472392487357,0.662541609077544,2.9336628194346646,4.887808368041619,1.8671040570863475,0.3290796298889607,0.06515637336675334,4.342580092232875,0.056498397403540186,0.2971682681197388,4.097035513386014,1.428497097086861
7,60.0,altitude_feedback,gain 0.1×,0.1,2.6,0.06,1.0,1.0,none,,37.21984353355349,9.162409928830902,7.284086057256928,0.0,0.48782260996001453,0.0,0.0,2.0,7,60.0,15,3.75,0,3.076448534070984,0.6679484926144487,2.957410001268504,4.909255377360754,1.8479968366673378,0.34092917300180337,0.06848455963844179,4.77649654918772,0.05932978830249504,0.3102436540079281,3.701137032373826,1.4134153665088793
7,60.0,altitude_feedback,gain 0.1×,0.1,2.6,0.06,1.0,1.0,none,,36.41030287423147,7.566222542379077,7.352090997894957,0.0,0.4921846601235914,0.0,0.0,2.0,8,60.0,15,3.75,0,2.9260557797787237,0.6345789927324955,2.764517350050456,4.717667659441621,1.8992955636263964,0.32919508022895,0.06372026305176655,4.744203806428032,0.06066278485949688,0.2990022401977588,3.930524520257145,1.4696048105776907
7,60.0,altitude_feedback,gain 0.1×,0.1,2.6,0.06,1.0,1.0,none,,36.49433170158671,7.27396842508114,7.386821648500685,0.0,0.49036713922210107,0.0,0.0,2.0,9,60.0,15,3.75,0,2.9416470224441618,0.6263049470710533,2.779891705893847,4.732790142424246,1.9084006196030148,0.3143776959470241,0.06338676526046816,4.647285473614353,0.060382690645530375,0.31000871341251496,3.9854069611494864,1.4516963615488432
7,60.0,altitude_feedback,gain 0.1×,0.1,2.6,0.06,1.0,1.0,none,,37.78197544786098,7.300942050802551,7.4126519232989825,0.0,0.4772809887313704,0.0,0.0,2.0,10,60.0,15,3.75,0,3.0659276772400594,0.6447855590904684,3.065293268147965,5.019222034890343,1.8603521431023284,0.2974057106257455,0.06627358933048151,3.9902737615486155,0.052649665041493834,0.32157783887484226,4.188552246593023,1.4280565011100315
7,60.0,altitude_feedback,gain 0.1×,0.1,2.6,0.06,1.0,1.0,none,,37.0063699760305,7.460732093849759,7.257945188330894,0.0,0.48964013086150493,0.0,0.0,2.0,11,60.0,15,3.75,0,3.043947549097131,0.6874872367715165,2.9094582077184374,4.863580144350893,1.8473005278363899,0.3540511466170406,0.06592790622121616,4.548088603371248,0.06045684138226205,0.2898650662349152,4.103410585085613,1.4522301712184607
7,60.0,altitude_feedback,gain 0.1×,0.1,2.6,0.06,1.0,1.0,none,,36.68481887329877,7.851610020227619,7.205969685808458,0.0,0.4914576517629953,0.0,0.0,2.0,12,60.0,15,3.75,0,2.9988243590489168,0.6776010781606365,2.8420345493430172,4.7968182412696265,1.8620140712027298,0.35464534847386886,0.06527407704739453,4.6863227333968975,0.06815294053044922,0.3030470791558441,3.95091798696667,1.4170355867813895
7,60.0,altitude_feedback,gain 0.1×,0.1,2.6,0.06,1.0,1.0,none,,36.31964277036236,7.238486149154105,7.531035001347962,0.0,0.48964013086150493,0.0,0.0,2.0,13,60.0,15,3.75,0,2.8927424276290585,0.6016836953997734,2.7257410172383336,4.676504705375836,1.9301695380546726,0.30204010779606033,0.06258078308375867,4.731953134052932,0.0507171319312291,0.29305038635192376,3.9447136158850062,1.4656254103938693
7,60.0,altitude_feedback,gain 0.1×,0.1,2.6,0.06,1.0,1.0,none,,37.102668461887745,8.072336299922597,7.220041248454485,0.0,0.48745910577971646,0.0,0.0,2.0,14,60.0,15,3.75,0,3.0695856757312225,0.6801962047072604,2.935013195711915,4.891851121199805,1.8603569632860586,0.3470926352584102,0.06492394526159549,4.2685017141274795,0.06515629612812958,0.30190902616838744,3.9624706899223114,1.4287107919669706
7,60.0,altitude_feedback,gain 0.1×,0.1,2.6,0.06,1.0,1.0,none,,37.13672275088498,7.163127790042596,7.213284740455938,0.0,0.48745910577971646,0.0,0.0,2.0,15,60.0,15,3.75,0,3.06773834592436,0.7127021213534803,2.9375976355775655,4.892136882142695,1.8219493982954271,0.37053847715077914,0.06680778830559155,4.5652735761584315,0.060716124154179485,0.2821920820822479,4.228529410068424,1.4492631579477007
7,60.0,altitude_feedback,gain 0.1×,0.1,2.6,0.06,1.0,1.0,none,,36.70942124256148,7.509286119902292,7.326572018608659,0.0,0.49182115594329334,0.0,0.0,3.0,0,60.0,15,3.75,0,2.993678132177928,0.6522372792266214,1.8603106154354836,4.78713942431399,1.8789206335457704,0.3341385035478342,0.065,4.7,0.06,0.3,4.0,1.4288992721907328
7,60.0,altitude_feedback,gain 0.1×,0.1,2.6,0.06,1.0,1.0,none,,37.1210819652148,7.55887021892861,7.458015504995188,0.0,0.48964013086150493,0.0,0.0,3.0,1,60.0,15,3.75,0,3.058063947761476,0.6323030178957713,1.9406876183349835,4.86568462788062,1.8905252290658585,0.29408524582815376,0.06577673839752203,4.570952355386659,0.0551469765634464,0.33000624819513635,3.9705706040793256,1.4182988268893335
7,60.0,altitude_feedback,gain 0.1×,0.1,2.6,0.06,1.0,1.0,none,,37.1342000997814,7.303835195559807,7.227576581692096,0.0,0.4870956015994184,0.0,0.0,3.0,2,60.0,15,3.75,0,3.0719686249733527,0.6738556006832177,1.959256762431489,4.894758208011876,1.8644147844229562,0.33580607867997814,0.06428724157605824,4.1638551873761624,0.06636539174031647,0.3114338956812706,4.134814580815061,1.44120695245206
7,60.0,altitude_feedback,gain 0.1×,0.1,2.6,0.06,1.0,1.0,none,,36.70435339712717,6.81684729817025,7.37871842364756,0.0,0.4910941475826972,0.0,0.0,3.0,3,60.0,15,3.75,0,2.985077409166734,0.6474158987550124,1.8532941299536543,4.782818661751299,1.8915366413827939,0.3282583142504002,0.06268446121923109,4.336350357380637,0.05515479194800862,0.2820106664684216,4.17178330111812,1.4246835883790174
7,60.0,altitude_feedback,gain 0.1×,0.1,2.6,0.06,1.0,1.0,none,,37.04812191152726,8.567617446489747,7.31479777444301,0.0,0.4881861141403126,0.0,0.0,3.0,4,60.0,15,3.75,0,3.0549060659902305,0.6514718026985705,1.9399218098916329,4.872934387605281,1.881143127650828,0.3263104411360807,0.06381785595855352,4.180630719342732,0.059804869770326875,0.30111774343157194,3.8014708311273617,1.422012753510219
7,60.0,altitude_feedback,gain 0.1×,0.1,2.6,0.06,1.0,1.0,none,,36.26198159976137,7.61592818764545,7.328030498122155,0.0,0.49036713922210107,0.0,0.0,3.0,5,60.0,15,3.75,0,2.897776032039613,0.6235875781029795,1.7583084515544782,4.687590379862461,1.9152587667218872,0.3226598870514286,0.0624217189570092,4.63370430103694,0.06530633920429904,0.3086503437550528,3.8808036451019428,1.390010992718187
7,60.0,altitude_feedback,gain 0.1×,0.1,2.6,0.06,1.0,1.0,none,,37.15477659449338,7.412646826789617,7.337614404873231,0.0,0.4881861141403126,0.0,0.0,3.0,6,60.0,15,3.75,0,3.069202505361089,0.6618659579489687,1.9576851402968165,4.888248336317655,1.8675212700399677,0.3290250707655496,0.06515637336675334,4.342580092232875,0.056498397403540186,0.2971682681197388,4.097035513386014,1.428497097086861
7,60.0,altitude_feedback,gain 0.1×,0.1,2.6,0.06,1.0,1.0,none,,37.22088371839688,9.158659934965364,7.282972300465456,0.0,0.48782260996001453,0.0,0.0,3.0,7,60.0,15,3.75,0,3.076065874399495,0.667121605044483,1.982359253181435,4.9097591012921935,1.848097027873363,0.3408618333160492,0.06848455963844179,4.77649654918772,0.05932978830249504,0.3102436540079281,3.701137032373826,1.4134153665088793
7,60.0,altitude_feedback,gain 0.1×,0.1,2.6,0.06,1.0,1.0,none,,36.411642862002104,7.563259525454896,7.352667057091462,0.0,0.4921846601235914,0.0,0.0,3.0,8,60.0,15,3.75,0,2.9262440861055548,0.6335169202889853,1.7909081110686909,4.717711317170051,1.8996679694779648,0.3291163796427335,0.06372026305176655,4.744203806428032,0.06066278485949688,0.2990022401977588,3.930524520257145,1.4696048105776907
7,60.0,altitude_feedback,gain 0.1×,0.1,2.6,0.06,1.0,1.0,none,,36.49815598439696,7.270900597290743,7.386399356569091,0.0,0.49036713922210107,0.0,0.0,3.0,9,60.0,15,3.75,0,2.944103719420457,0.6252315013792153,1.8058816501650796,4.7325504747787095,1.9083636310821674,0.3142883973547723,0.06338676526046816,4.647285473614353,0.060382690645530375,0.31000871341251496,3.9854069611494864,1.4516963615488432
7,60.0,altitude_feedback,gain 0.1×,0.1,2.6,0.06,1.0,1.0,none,,37.78410649561657,7.298319417165774,7.412594522324819,0.0,0.4772809887313704,0.0,0.0,3.0,10,60.0,15,3.75,0,3.0666513754314884,0.6444320930841652,2.0880547333717585,5.019809481667427,1.859852306258156,0.2973535431048451,0.06627358933048151,3.9902737615486155,0.052649665041493834,0.32157783887484226,4.188552246593023,1.4280565011100315
7,60.0,altitude_feedback,gain 0.1×,0.1,2.6,0.06,1.0,1.0,none,,37.00717389444023,7.458037394758105,7.258155053924901,0.0,0.48964013086150493,0.0,0.0,3.0,11,60.0,15,3.75,0,3.0454499953970906,0.6863043560891914,1.9333302996436057,4.863512788357595,1.8477320875670704,0.3539741675579438,0.06592790622121616,4.548088603371248,0.06045684138226205,0.2898650662349152,4.103410585085613,1.4522301712184607
7,60.0,altitude_feedback,gain 0.1×,0.1,2.6,0.06,1.0,1.0,none,,36.68593949427639,7.848354184017172,7.207458444247743,0.0,0.4914576517629953,0.0,0.0,3.0,12,60.0,15,3.75,0,2.9975016512732644,0.6764271173547491,1.8664130883566017,4.796809261214723,1.8624445949511812,0.35457354197823204,0.06527407704739453,4.6863227333968975,0.06815294053044922,0.3030470791558441,3.95091798696667,1.4170355867813895
7,60.0,altitude_feedback,gain 0.1×,0.1,2.6,0.06,1.0,1.0,none,,36.31981863692407,7.235620332132695,7.530848484862154,0.0,0.49073064340239914,0.0,0.0,3.0,13,60.0,15,3.75,0,2.896762092439176,0.6018061629435373,1.7558438884742718,4.6781863669525965,1.9304828964971883,0.3020187601017097,0.06258078308375867,4.731953134052932,0.0507171319312291,0.29305038635192376,3.9447136158850062,1.4656254103938693
7,60.0,altitude_feedback,gain 0.1×,0.1,2.6,0.06,1.0,1.0,none,,37.10356698887478,8.069171491129726,7.21736437174919,0.0,0.4870956015994184,0.0,0.0,3.0,14,60.0,15,3.75,0,3.069208447741608,0.6793342100871052,1.9575942539127957,4.892252292933117,1.860837170014861,0.34704282874595516,0.06492394526159549,4.2685017141274795,0.06515629612812958,0.30190902616838744,3.9624706899223114,1.4287107919669706
7,60.0,altitude_feedback,gain 0.1×,0.1,2.6,0.06,1.0,1.0,none,,37.13740355454389,7.1609759975417875,7.212869062795146,0.0,0.48782260996001453,0.0,0.0,3.0,15,60.0,15,3.75,0,3.0678568194992475,0.7118510180327262,1.9614317268989536,4.892707737658252,1.822363473882315,0.37050286779859976,0.06680778830559155,4.5652735761584315,0.060716124154179485,0.2821920820822479,4.228529410068424,1.4492631579477007
7,60.0,altitude_feedback,gain 0.1×,0.1,2.6,0.06,1.0,1.0,none,,36.70629170591934,7.504414415433588,7.3256626379995105,0.0,0.49182115594329334,0.0,0.0,4.0,0,60.0,15,3.75,1,2.994950994172586,0.649072757679709,0.9436714733808859,4.789451749313275,1.8794166255226512,0.3340549750153021,0.065,4.7,0.06,0.3,4.0,1.4288992721907328
7,60.0,altitude_feedback,gain 0.1×,0.1,2.6,0.06,1.0,1.0,none,,37.123325737408656,7.553620349510622,7.457551312100708,0.0,0.48964013086150493,0.0,0.0,4.0,1,60.0,15,3.75,0,3.0609270873345573,0.6313285185944839,1.0191537643324187,4.867853930185484,1.8891127543734227,0.2939097451634716,0.06577673839752203,4.570952355386659,0.0551469765634464,0.33000624819513635,3.9705706040793256,1.4182988268893335
7,60.0,altitude_feedback,gain 0.1×,0.1,2.6,0.06,1.0,1.0,none,,37.134950417992904,7.29909463877137,7.227846368414804,0.0,0.4870956015994184,0.0,0.0,4.0,2,60.0,15,3.75,0,3.076873033325252,0.6722834307019299,1.025604227018819,4.896146277999363,1.8648766846876372,0.33573840527145016,0.06428724157605824,4.1638551873761624,0.06636539174031647,0.3114338956812706,4.134814580815061,1.44120695245206
7,60.0,altitude_feedback,gain 0.1×,0.1,2.6,0.06,1.0,1.0,none,,36.70641878535336,6.813210939795481,7.378122705267151,0.0,0.4914576517629953,0.0,0.0,4.0,3,60.0,15,3.75,1,2.9872611873575527,0.6442753892930232,0.9333217345518655,4.783964716186828,1.8924094815421943,0.32818038962254714,0.06268446121923109,4.336350357380637,0.05515479194800862,0.2820106664684216,4.17178330111812,1.4246835883790174
7,60.0,altitude_feedback,gain 0.1×,0.1,2.6,0.06,1.0,1.0,none,,37.05578746933829,8.561194711432519,7.314864424288325,0.0,0.48782260996001453,0.0,0.0,4.0,4,60.0,15,3.75,0,3.0596673541380426,0.6482454347216781,1.0105440875404867,4.874787703486144,1.8816955401730702,0.3260720515987411,0.06381785595855352,4.180630719342732,0.059804869770326875,0.30111774343157194,3.8014708311273617,1.422012753510219
7,60.0,altitude_feedback,gain 0.1×,0.1,2.6,0.06,1.0,1.0,none,,36.269383374096485,7.609301544505733,7.322849951313309,0.0,0.4914576517629953,0.0,0.0,4.0,5,60.0,15,3.75,1,2.9070653068845935,0.6105386232408287,0.850704647001179,4.692289155313452,1.924342813723831,0.32280242856261376,0.0624217189570092,4.63370430103694,0.06530633920429904,0.3086503437550528,3.8808036451019428,1.390010992718187
7,60.0,altitude_feedback,gain 0.1×,0.1,2.6,0.06,1.0,1.0,none,,37.15524803390619,7.408339424989704,7.337365250034849,0.0,0.48745910577971646,0.0,0.0,4.0,6,60.0,15,3.75,0,3.067632316867122,0.6602353654291383,1.0285402554353005,4.8891753885068345,1.8681521094725824,0.3288912947050308,0.06515637336675334,4.342580092232875,0.056498397403540186,0.2971682681197388,4.097035513386014,1.428497097086861
7,60.0,altitude_feedback,gain 0.1×,0.1,2.6,0.06,1.0,1.0,none,,37.22182746103501,9.151573774993176,7.284198280621884,0.0,0.48745910577971646,0.0,0.0,4.0,7,60.0,15,3.75,0,3.080393358591419,0.6631483057343802,1.0557714343576887,4.912063182148257,1.8481893200751975,0.3405213672887495,0.06848455963844179,4.77649654918772,0.05932978830249504,0.3102436540079281,3.701137032373826,1.4134153665088793
7,60.0,altitude_feedback,gain 0.1×,0.1,2.6,0.06,1.0,1.0,none,,36.425005024414254,7.55777524346811,7.348762216692448,0.0,0.4910941475826972,0.0,0.0,4.0,8,60.0,15,3.75,1,2.9296783482337423,0.6220337978471842,0.880524900505299,4.720139895424558,1.906215546464403,0.32911593338976647,0.06372026305176655,4.744203806428032,0.06066278485949688,0.2990022401977588,3.930524520257145,1.4696048105776907
7,60.0,altitude_feedback,gain 0.1×,0.1,2.6,0.06,1.0,1.0,none,,36.50254034100147,7.2653849906516355,7.3826581932975985,0.0,0.49073064340239914,0.0,0.0,4.0,9,60.0,15,3.75,1,2.9493863729617393,0.6166314097995048,0.8948921320151254,4.735391094616761,1.91263574732707,0.3143269786038376,0.06338676526046816,4.647285473614353,0.060382690645530375,0.31000871341251496,3.9854069611494864,1.4516963615488432
7,60.0,altitude_feedback,gain 0.1×,0.1,2.6,0.06,1.0,1.0,none,,37.78741052033664,7.294296187796158,7.413959570687321,0.0,0.47691748455107236,0.0,0.0,4.0,10,60.0,15,3.75,0,3.0711173927368622,0.6433416428148371,1.1501629484769853,5.021017387043957,1.8594271926491455,0.2972263440501927,0.06627358933048151,3.9902737615486155,0.052649665041493834,0.32157783887484226,4.188552246593023,1.4280565011100315
7,60.0,altitude_feedback,gain 0.1×,0.1,2.6,0.06,1.0,1.0,none,,37.01404576707569,7.453656208492837,7.2600049113803236,0.0,0.48891312250090874,0.0,0.0,4.0,11,60.0,15,3.75,0,3.0512916762261297,0.6836093231043444,1.006157096761401,4.864277887330024,1.8492597160241582,0.3538247642726755,0.06592790622121616,4.548088603371248,0.06045684138226205,0.2898650662349152,4.103410585085613,1.4522301712184607
7,60.0,altitude_feedback,gain 0.1×,0.1,2.6,0.06,1.0,1.0,none,,36.68796523418011,7.842270744923287,7.207542343557651,0.0,0.4910941475826972,0.0,0.0,4.0,12,60.0,15,3.75,1,2.998812275492636,0.6732014108158265,0.9446613539859894,4.798206558424081,1.8629505029448699,0.354406517730118,0.06527407704739453,4.6863227333968975,0.06815294053044922,0.3030470791558441,3.95091798696667,1.4170355867813895
7,60.0,altitude_feedback,gain 0.1×,0.1,2.6,0.06,1.0,1.0,none,,36.34123549115888,7.230448558101119,7.52318391678454,0.0,0.49182115594329334,0.0,0.0,4.0,13,60.0,15,3.75,1,2.9048159013177073,0.5766029365956976,0.8560703638391283,4.683470707137845,1.949084048649153,0.3022588179863662,0.06258078308375867,4.731953134052932,0.0507171319312291,0.29305038635192376,3.9447136158850062,1.4656254103938693
7,60.0,altitude_feedback,gain 0.1×,0.1,2.6,0.06,1.0,1.0,none,,37.10876934001883,8.0633269396909,7.214955290510465,0.0,0.4870956015994184,0.0,0.0,4.0,14,60.0,15,3.75,0,3.072009302204094,0.6764312878225324,1.0247312454885902,4.8933163345168635,1.8618647584127874,0.34685607366452,0.06492394526159549,4.2685017141274795,0.06515629612812958,0.30190902616838744,3.9624706899223114,1.4287107919669706
7,60.0,altitude_feedback,gain 0.1×,0.1,2.6,0.06,1.0,1.0,none,,37.13853553513797,7.157600932155713,7.213377333879576,0.0,0.48745910577971646,0.0,0.0,4.0,15,60.0,15,3.75,0,3.070665509858358,0.7098916982503019,1.031500360806621,4.893788428196278,1.822763684271347,0.37042188116593694,0.06680778830559155,4.5652735761584315,0.060716124154179485,0.2821920820822479,4.228529410068424,1.4492631579477007
7,60.0,altitude_feedback,gain 0.1×,0.1,2.6,0.06,1.0,1.0,none,,39.078501559497425,7.505958440160194,5.437962686895534,0.0,0.4830970556161396,0.0,0.0,5.0,0,60.0,16,4.0,1,3.4220398182135647,0.4002888086920608,0.6501759909899227,5.335785253033427,2.055104614504452,0.3473481264845008,0.065,4.7,0.06,0.3,4.0,1.4288992721907328
7,60.0,altitude_feedback,gain 0.1×,0.1,2.6,0.06,1.0,1.0,none,,39.143148151518176,7.554709138723781,5.281728033051395,0.0,0.48964013086150493,0.0,0.0,5.0,1,60.0,16,4.0,1,3.4047912458601113,0.3811368894609819,0.6609536924478782,5.356084296614091,2.1633243258636443,0.3024459305258057,0.06577673839752203,4.570952355386659,0.0551469765634464,0.33000624819513635,3.9705706040793256,1.4182988268893335
7,60.0,altitude_feedback,gain 0.1×,0.1,2.6,0.06,1.0,1.0,none,,38.848436369134326,7.299415419690192,5.495313683641429,0.0,0.48237004725554344,0.0,0.0,5.0,2,60.0,16,4.0,1,3.351746985744154,0.360371712027904,0.6033945488822998,5.309385961137825,2.1464525665662926,0.3500865431494678,0.06428724157605824,4.1638551873761624,0.06636539174031647,0.3114338956812706,4.134814580815061,1.44120695245206
7,60.0,altitude_feedback,gain 0.1×,0.1,2.6,0.06,1.0,1.0,none,,39.0623425375482,6.814947660244601,5.4590632600780085,0.0,0.480189022173755,0.0,0.0,5.0,3,60.0,16,4.0,1,3.42505132570592,0.3914466008327189,0.639527503142161,5.3294632728781375,2.078592190420096,0.340842291607458,0.06268446121923109,4.336350357380637,0.05515479194800862,0.2820106664684216,4.17178330111812,1.4246835883790174
7,60.0,altitude_feedback,gain 0.1×,0.1,2.6,0.06,1.0,1.0,none,,38.93418940557375,8.562581328907404,5.458774413063717,0.0,0.4827335514358415,0.0,0.0,5.0,4,60.0,16,4.0,1,3.3716370934069237,0.3701102690835806,0.6191019978176732,5.320418228481299,2.1375755063904087,0.33861782900105974,0.06381785595855352,4.180630719342732,0.059804869770326875,0.30111774343157194,3.8014708311273617,1.422012753510219
7,60.0,altitude_feedback,gain 0.1×,0.1,2.6,0.06,1.0,1.0,none,,39.0686616254924,7.610399717338641,5.325673687340038,0.0,0.480189022173755,0.0,0.0,5.0,5,60.0,16,4.0,1,3.4517553130495235,0.41615553916196113,0.6408428616681748,5.325587113249584,2.0278638417100012,0.3429139141447624,0.0624217189570092,4.63370430103694,0.06530633920429904,0.3086503437550528,3.8808036451019428,1.390010992718187
7,60.0,altitude_feedback,gain 0.1×,0.1,2.6,0.06,1.0,1.0,none,,38.98706967192891,7.409594078841712,5.490405337596451,0.0,0.4856415848782261,0.0,0.0,5.0,6,60.0,16,4.0,1,3.36946250503004,0.36773861483021175,0.6336282496574727,5.330518260257578,2.1427778835462314,0.33873007372007546,0.06515637336675334,4.342580092232875,0.056498397403540186,0.2971682681197388,4.097035513386014,1.428497097086861
7,60.0,altitude_feedback,gain 0.1×,0.1,2.6,0.06,1.0,1.0,none,,39.051367996797936,9.153121285260147,5.620648546811231,0.0,0.4860050890585242,0.0,0.0,5.0,7,60.0,16,4.0,1,3.3782578588629066,0.3838001798481871,0.650981650177014,5.340556035242644,2.104598208645867,0.34935818626682574,0.06848455963844179,4.77649654918772,0.05932978830249504,0.3102436540079281,3.701137032373826,1.4134153665088793
7,60.0,altitude_feedback,gain 0.1×,0.1,2.6,0.06,1.0,1.0,none,,39.128041718078755,7.559301003543467,5.371403871953737,0.0,0.48055252635405304,0.0,0.0,5.0,8,60.0,16,4.0,1,3.452967018945515,0.4157862585056642,0.6550674719245541,5.338100149810298,2.027952308399529,0.3451152682909714,0.06372026305176655,4.744203806428032,0.06066278485949688,0.2990022401977588,3.930524520257145,1.4696048105776907
7,60.0,altitude_feedback,gain 0.1×,0.1,2.6,0.06,1.0,1.0,none,,39.128499601092166,7.266455945305089,5.3302386577778815,0.0,0.48127953471464924,0.0,0.0,5.0,9,60.0,16,4.0,1,3.4539912720553585,0.4072432285666995,0.6533375577099527,5.340797896076326,2.060040316829327,0.3297500523324362,0.06338676526046816,4.647285473614353,0.060382690645530375,0.31000871341251496,3.9854069611494864,1.4516963615488432
7,60.0,altitude_feedback,gain 0.1×,0.1,2.6,0.06,1.0,1.0,none,,38.94914248540934,7.29499031622427,5.753497589069395,0.0,0.49073064340239914,0.0,0.0,5.0,10,60.0,16,4.0,1,3.3222374502023024,0.32690793352298,0.624016197317272,5.334768902634959,2.3003781962380314,0.3040417015842265,0.06627358933048151,3.9902737615486155,0.052649665041493834,0.32157783887484226,4.188552246593023,1.4280565011100315
7,60.0,altitude_feedback,gain 0.1×,0.1,2.6,0.06,1.0,1.0,none,,38.9879651917612,7.4554742682364585,5.55804417524753,0.0,0.4816430388949473,0.0,0.0,5.0,11,60.0,16,4.0,1,3.3899029234726497,0.38964289745752023,0.6342309160514763,5.3246712134113094,2.0792519803295995,0.36573268455287483,0.06592790622121616,4.548088603371248,0.06045684138226205,0.2898650662349152,4.103410585085613,1.4522301712184607
7,60.0,altitude_feedback,gain 0.1×,0.1,2.6,0.06,1.0,1.0,none,,38.9453916771665,7.843687060189414,5.491201677776449,0.0,0.480189022173755,0.0,0.0,5.0,12,60.0,16,4.0,1,3.3971166612098456,0.4048799013377912,0.6290005538626772,5.316429725148029,2.0301806319715596,0.37193053582514907,0.06527407704739453,4.6863227333968975,0.06815294053044922,0.3030470791558441,3.95091798696667,1.4170355867813895
7,60.0,altitude_feedback,gain 0.1×,0.1,2.6,0.06,1.0,1.0,none,,39.32116342601548,7.232130239232933,5.3040777677789555,0.0,0.48346055979643765,0.0,0.0,5.0,13,60.0,16,4.0,1,3.499437678777221,0.43223340437066077,0.6854389102813652,5.36343758295179,2.0454015025917105,0.3126600692943706,0.06258078308375867,4.731953134052932,0.0507171319312291,0.29305038635192376,3.9447136158850062,1.4656254103938693
7,60.0,altitude_feedback,gain 0.1×,0.1,2.6,0.06,1.0,1.0,none,,38.8874719168716,8.064329617586626,5.588094659742754,0.0,0.4820065430752454,0.0,0.0,5.0,14,60.0,16,4.0,1,3.350191625858104,0.37198121275202156,0.6094926001878883,5.309874077851459,2.118759373329215,0.36071649283524226,0.06492394526159549,4.2685017141274795,0.06515629612812958,0.30190902616838744,3.9624706899223114,1.4287107919669706
7,60.0,altitude_feedback,gain 0.1×,0.1,2.6,0.06,1.0,1.0,none,,38.98822728506339,7.159533925192713,5.758109641426028,0.0,0.48346055979643765,0.0,0.0,5.0,15,60.0,16,4.0,1,3.3531091673835802,0.3969678560088864,0.6305118847140306,5.319069543087345,2.0804274977899833,0.3814725944024275,0.06680778830559155,4.5652735761584315,0.060716124154179485,0.2821920820822479,4.228529410068424,1.4492631579477007
7,60.0,altitude_feedback,gain 0.1×,0.1,2.6,0.06,1.0,1.0,none,,41.34355710882435,7.505958440160194,4.407739345533342,0.0,0.5263540530716103,0.0,0.0,6.0,0,60.0,17,4.25,1,4.333404912224109,0.5519777602019196,0.5843416025413173,6.145016468481408,2.0808553748550174,0.3824822478588586,0.065,4.7,0.06,0.3,4.0,1.4288992721907328
7,60.0,altitude_feedback,gain 0.1×,0.1,2.6,0.06,1.0,1.0,none,,41.43834248396175,7.554709138723781,4.3080059461758715,0.0,0.52453653217012,0.0,0.0,6.0,1,60.0,17,4.25,1,4.33361491810247,0.5680841812005782,0.589379271722498,6.177320213560395,2.111949575062051,0.33024011908804973,0.06577673839752203,4.570952355386659,0.0551469765634464,0.33000624819513635,3.9705706040793256,1.4182988268893335
7,60.0,altitude_feedback,gain 0.1×,0.1,2.6,0.06,1.0,1.0,none,,41.286353818266576,7.299415419690192,4.499723256074028,0.0,0.5278080697928026,0.0,0.0,6.0,2,60.0,17,4.25,1,4.343180986328066,0.5271168174882667,0.5609701755292735,6.134067345447026,2.080762940340659,0.3914900383103074,0.06428724157605824,4.1638551873761624,0.06636539174031647,0.3114338956812706,4.134814580815061,1.44120695245206
7,60.0,altitude_feedback,gain 0.1×,0.1,2.6,0.06,1.0,1.0,none,,41.275958998706926,6.814947660244601,4.4612958368038615,0.0,0.5281715739731007,0.0,0.0,6.0,3,60.0,17,4.25,1,4.336735495995769,0.5347663702701462,0.5749363454971325,6.127015422027592,2.1727998427616946,0.3746510551250495,0.06268446121923109,4.336350357380637,0.05515479194800862,0.2820106664684216,4.17178330111812,1.4246835883790174
7,60.0,altitude_feedback,gain 0.1×,0.1,2.6,0.06,1.0,1.0,none,,41.318582114668025,8.562581328907404,4.481338352596609,0.0,0.5274445656125045,0.0,0.0,6.0,4,60.0,17,4.25,1,4.333354503432259,0.5535561835396914,0.5709528694169432,6.132423747662268,2.10617027369833,0.37465655044483154,0.06381785595855352,4.180630719342732,0.059804869770326875,0.30111774343157194,3.8014708311273617,1.422012753510219
7,60.0,altitude_feedback,gain 0.1×,0.1,2.6,0.06,1.0,1.0,none,,41.20989407863751,7.610399717338641,4.273160833052304,0.0,0.5285350781533987,0.0,0.0,6.0,5,60.0,17,4.25,1,4.339239285291452,0.5373825403730002,0.5673562439861539,6.113670693535063,2.170487390783885,0.3831297395892986,0.0624217189570092,4.63370430103694,0.06530633920429904,0.3086503437550528,3.8808036451019428,1.390010992718187
7,60.0,altitude_feedback,gain 0.1×,0.1,2.6,0.06,1.0,1.0,none,,41.38717494596199,7.409594078841712,4.506594402632724,0.0,0.5256270447110142,0.0,0.0,6.0,6,60.0,17,4.25,1,4.338401210940268,0.5483769958504221,0.5825942922303959,6.155368215890287,2.0734476297537388,0.37121102785638876,0.06515637336675334,4.342580092232875,0.056498397403540186,0.2971682681197388,4.097035513386014,1.428497097086861
7,60.0,altitude_feedback,gain 0.1×,0.1,2.6,0.06,1.0,1.0,none,,41.52316145870779,9.153121285260147,4.504027212528892,0.0,0.5256270447110142,0.0,0.0,6.0,7,60.0,17,4.25,1,4.334455577127068,0.5705150571742398,0.6089144743053854,6.178560711748403,1.9435938334883014,0.3810938657408505,0.06848455963844179,4.77649654918772,0.05932978830249504,0.3102436540079281,3.701137032373826,1.4134153665088793
7,60.0,altitude_feedback,gain 0.1×,0.1,2.6,0.06,1.0,1.0,none,,41.29163175457382,7.559301003543467,4.3724328345330745,0.0,0.5285350781533987,0.0,0.0,6.0,8,60.0,17,4.25,1,4.343471342035977,0.549689843810879,0.5811753279926324,6.13188296246105,2.129843268411517,0.38137812909186186,0.06372026305176655,4.744203806428032,0.06066278485949688,0.2990022401977588,3.930524520257145,1.4696048105776907
7,60.0,altitude_feedback,gain 0.1×,0.1,2.6,0.06,1.0,1.0,none,,41.282950075434236,7.266455945305089,4.308963759392849,0.0,0.5274445656125045,0.0,0.0,6.0,9,60.0,17,4.25,1,4.346911571433263,0.5439630742539655,0.5744029470651905,6.137779943994206,2.1633439254369855,0.36499998129071426,0.06338676526046816,4.647285473614353,0.060382690645530375,0.31000871341251496,3.9854069611494864,1.4516963615488432
7,60.0,altitude_feedback,gain 0.1×,0.1,2.6,0.06,1.0,1.0,none,,41.49017185851669,7.295010827609261,4.550403188350101,0.0,0.5227190112686296,0.0,0.0,6.0,10,60.0,17,4.25,1,4.342543882884167,0.5477832830198438,0.5870365421197387,6.189016232365494,2.070234025265427,0.33063503810542283,0.06627358933048151,3.9902737615486155,0.052649665041493834,0.32157783887484226,4.188552246593023,1.4280565011100315
7,60.0,altitude_feedback,gain 0.1×,0.1,2.6,0.06,1.0,1.0,none,,41.39971209585682,7.4554742682364585,4.5760986016354765,0.0,0.5281715739731007,0.0,0.0,6.0,11,60.0,17,4.25,1,4.336720321975229,0.5466016557820277,0.5868512526368461,6.146761931388898,2.011380793975414,0.4021965026799545,0.06592790622121616,4.548088603371248,0.06045684138226205,0.2898650662349152,4.103410585085613,1.4522301712184607
7,60.0,altitude_feedback,gain 0.1×,0.1,2.6,0.06,1.0,1.0,none,,41.31931942566779,7.843687060189414,4.469054817322438,0.0,0.5285350781533987,0.0,0.0,6.0,12,60.0,17,4.25,1,4.337623798002153,0.5461497347428961,0.5790145025357541,6.128303388254753,2.0248616885091346,0.41448714989333085,0.06527407704739453,4.6863227333968975,0.06815294053044922,0.3030470791558441,3.95091798696667,1.4170355867813895
7,60.0,altitude_feedback,gain 0.1×,0.1,2.6,0.06,1.0,1.0,none,,41.3374843740521,7.232130239232933,4.26742914342296,0.0,0.5278080697928026,0.0,0.0,6.0,13,60.0,17,4.25,1,4.356732294345354,0.5645891216759004,0.5831554846044583,6.1474032748124285,2.1993415044669393,0.3403314186414526,0.06258078308375867,4.731953134052932,0.0507171319312291,0.29305038635192376,3.9447136158850062,1.4656254103938693
7,60.0,altitude_feedback,gain 0.1×,0.1,2.6,0.06,1.0,1.0,none,,41.33912232989699,8.064329617586626,4.534677244700788,0.0,0.5278080697928026,0.0,0.0,6.0,14,60.0,17,4.25,1,4.335693579073277,0.5406118668380355,0.5710803882809153,6.132936790228271,2.0375032574237073,0.40146173598733287,0.06492394526159549,4.2685017141274795,0.06515629612812958,0.30190902616838744,3.9624706899223114,1.4287107919669706
7,60.0,altitude_feedback,gain 0.1×,0.1,2.6,0.06,1.0,1.0,none,,41.43187164162342,7.159533925192713,4.677346051581687,0.0,0.5270810614322065,0.0,0.0,6.0,15,60.0,17,4.25,1,4.325466530574005,0.5351844211499414,0.592473666621616,6.146877474600811,1.9706436434190986,0.4185879445981951,0.06680778830559155,4.5652735761584315,0.060716124154179485,0.2821920820822479,4.228529410068424,1.4492631579477007
7,60.0,altitude_feedback,gain 0.25×,0.25,2.6,0.06,1.0,1.0,none,,36.87146426383144,7.510832715006616,7.29928792638103,0.0,0.4925481643038895,0.0,0.0,2.0,0,60.0,15,3.75,0,2.9973750369564005,0.42286682924893293,2.8379193125463944,4.790056382142054,2.159344958140901,0.33570794980942625,0.065,4.7,0.06,0.3,4.0,1.4288992721907328
7,60.0,altitude_feedback,gain 0.25×,0.25,2.6,0.06,1.0,1.0,none,,37.46351196725918,7.560677598497531,7.419401400635556,0.0,0.49036713922210107,0.0,0.0,2.0,1,60.0,15,3.75,0,3.063286833408257,0.4359966829172469,2.918003939753847,4.868101316387179,2.100637147405538,0.29553887420110786,0.06577673839752203,4.570952355386659,0.0551469765634464,0.33000624819513635,3.9705706040793256,1.4182988268893335
7,60.0,altitude_feedback,gain 0.25×,0.25,2.6,0.06,1.0,1.0,none,,37.257268370386726,7.305585012093902,7.186420801059982,0.0,0.48854961832061067,0.0,0.0,2.0,2,60.0,15,3.75,0,3.070924251816372,0.43323734824298094,2.93980879110961,4.896960392899026,2.1524935728476002,0.3374022073786213,0.06428724157605824,4.1638551873761624,0.06636539174031647,0.3114338956812706,4.134814580815061,1.44120695245206
7,60.0,altitude_feedback,gain 0.25×,0.25,2.6,0.06,1.0,1.0,none,,36.856088102484726,6.818292100508295,7.344679369429846,0.0,0.49182115594329334,0.0,0.0,2.0,3,60.0,15,3.75,0,2.986938118741757,0.416117353555016,2.8311283624986348,4.785085143574467,2.170032845274828,0.3300115541100757,0.06268446121923109,4.336350357380637,0.05515479194800862,0.2820106664684216,4.17178330111812,1.4246835883790174
7,60.0,altitude_feedback,gain 0.25×,0.25,2.6,0.06,1.0,1.0,none,,37.27890274827991,8.56939309143382,7.273058912282226,0.0,0.48891312250090874,0.0,0.0,2.0,4,60.0,15,3.75,0,3.0587360653289366,0.4258464407778158,2.9192151463045763,4.874815571364083,2.1526903312152754,0.3277602687891311,0.06381785595855352,4.180630719342732,0.059804869770326875,0.30111774343157194,3.8014708311273617,1.422012753510219
7,60.0,altitude_feedback,gain 0.25×,0.25,2.6,0.06,1.0,1.0,none,,36.45325335291923,7.617967381224864,7.287975616847484,0.0,0.4921846601235914,0.0,0.0,2.0,5,60.0,15,3.75,0,2.901319084944297,0.4003158945470167,2.735916480402873,4.690488973918573,2.176708225391825,0.3241631095013137,0.0624217189570092,4.63370430103694,0.06530633920429904,0.3086503437550528,3.8808036451019428,1.390010992718187
7,60.0,altitude_feedback,gain 0.25×,0.25,2.6,0.06,1.0,1.0,none,,37.34439366324074,7.414092715116155,7.296024400698619,0.0,0.48927662668120686,0.0,0.0,2.0,6,60.0,15,3.75,0,3.0678646346025147,0.4330759818269574,2.9366346256872515,4.890459136044509,2.1458410596558437,0.3306615894518049,0.06515637336675334,4.342580092232875,0.056498397403540186,0.2971682681197388,4.097035513386014,1.428497097086861
7,60.0,altitude_feedback,gain 0.25×,0.25,2.6,0.06,1.0,1.0,none,,37.45589302355674,9.160344993295201,7.260658679531236,0.0,0.48854961832061067,0.0,0.0,2.0,7,60.0,15,3.75,0,3.080532495480905,0.441755814525238,2.9595160737696813,4.911081174864854,2.109924011834676,0.3421439699734648,0.06848455963844179,4.77649654918772,0.05932978830249504,0.3102436540079281,3.701137032373826,1.4134153665088793
7,60.0,altitude_feedback,gain 0.25×,0.25,2.6,0.06,1.0,1.0,none,,36.577178746964655,7.56496554126517,7.3237069076302745,0.0,0.4921846601235914,0.0,0.0,2.0,8,60.0,15,3.75,0,2.9290318141486167,0.40786351091401224,2.7682183979658466,4.720931408217064,2.171464084636252,0.33067229953884736,0.06372026305176655,4.744203806428032,0.06066278485949688,0.2990022401977588,3.930524520257145,1.4696048105776907
7,60.0,altitude_feedback,gain 0.25×,0.25,2.6,0.06,1.0,1.0,none,,36.71924038796482,7.2727889252858935,7.345428991886264,0.0,0.4914576517629953,0.0,0.0,2.0,9,60.0,15,3.75,0,2.947644935648342,0.410264785718842,2.783245866049687,4.7356462446843555,2.1563518365589007,0.3158326568852168,0.06338676526046816,4.647285473614353,0.060382690645530375,0.31000871341251496,3.9854069611494864,1.4516963615488432
7,60.0,altitude_feedback,gain 0.25×,0.25,2.6,0.06,1.0,1.0,none,,38.02889589170375,7.299768285208086,7.374134800824762,0.0,0.47800799709196656,0.0,0.0,2.0,10,60.0,15,3.75,0,3.064433860610383,0.4408639265611264,3.06829676486164,5.021919616893476,2.113026088070102,0.2989803442748787,0.06627358933048151,3.9902737615486155,0.052649665041493834,0.32157783887484226,4.188552246593023,1.4280565011100315
7,60.0,altitude_feedback,gain 0.25×,0.25,2.6,0.06,1.0,1.0,none,,37.07367729607038,7.459347389739752,7.225584894167997,0.0,0.48927662668120686,0.0,0.0,2.0,11,60.0,15,3.75,0,3.053234421358738,0.43647094019564037,2.9121288277316837,4.86595079601911,2.1494254757038114,0.3556282707277998,0.06592790622121616,4.548088603371248,0.06045684138226205,0.2898650662349152,4.103410585085613,1.4522301712184607
7,60.0,altitude_feedback,gain 0.25×,0.25,2.6,0.06,1.0,1.0,none,,36.75671506741609,7.849995337150306,7.170225431550249,0.0,0.4925481643038895,0.0,0.0,2.0,12,60.0,15,3.75,0,3.000405867039084,0.4269601983481427,2.845463384421745,4.79998567486412,2.156331161373221,0.35611051576596275,0.06527407704739453,4.6863227333968975,0.06815294053044922,0.3030470791558441,3.95091798696667,1.4170355867813895
7,60.0,altitude_feedback,gain 0.25×,0.25,2.6,0.06,1.0,1.0,none,,36.60272919442053,7.237355051153935,7.495291770056174,0.0,0.49182115594329334,0.0,0.0,2.0,13,60.0,15,3.75,0,2.90403024100885,0.40052719680245796,2.730340867856981,4.6804557595926966,2.1541881971419534,0.30357797186098984,0.06258078308375867,4.731953134052932,0.0507171319312291,0.29305038635192376,3.9447136158850062,1.4656254103938693
7,60.0,altitude_feedback,gain 0.25×,0.25,2.6,0.06,1.0,1.0,none,,37.22363010295597,8.070757197477537,7.184928652226964,0.0,0.4881861141403126,0.0,0.0,2.0,14,60.0,15,3.75,0,3.0691440705971846,0.4335016249273087,2.9373597505652964,4.893974705444614,2.143254832656043,0.3485220522080572,0.06492394526159549,4.2685017141274795,0.06515629612812958,0.30190902616838744,3.9624706899223114,1.4287107919669706
7,60.0,altitude_feedback,gain 0.25×,0.25,2.6,0.06,1.0,1.0,none,,37.106038418027794,7.161966983970374,7.176112883164817,0.0,0.48854961832061067,0.0,0.0,2.0,15,60.0,15,3.75,0,3.0657028290062804,0.4460603880351039,2.9408184435587,4.895207462129095,2.1482456126060083,0.37226197159301455,0.06680778830559155,4.5652735761584315,0.060716124154179485,0.2821920820822479,4.228529410068424,1.4492631579477007
7,60.0,altitude_feedback,gain 0.25×,0.25,2.6,0.06,1.0,1.0,none,,36.87715143912656,7.508049887315921,7.297434167344227,0.0,0.4925481643038895,0.0,0.0,3.0,0,60.0,15,3.75,0,2.9982675756170125,0.4225263704143799,1.8634766629486872,4.789759667899871,2.1582100156278474,0.3356109878081626,0.065,4.7,0.06,0.3,4.0,1.4288992721907328
7,60.0,altitude_feedback,gain 0.25×,0.25,2.6,0.06,1.0,1.0,none,,37.477170918738935,7.5576392869691675,7.417960865602162,0.0,0.49036713922210107,0.0,0.0,3.0,1,60.0,15,3.75,0,3.0637638712387023,0.4360906253295854,1.9448213177268916,4.869246458243406,2.1004321353227797,0.29551207639409643,0.06577673839752203,4.570952355386659,0.0551469765634464,0.33000624819513635,3.9705706040793256,1.4182988268893335
7,60.0,altitude_feedback,gain 0.25×,0.25,2.6,0.06,1.0,1.0,none,,37.268050402104926,7.3025981519802325,7.182786643980763,0.0,0.48891312250090874,0.0,0.0,3.0,2,60.0,15,3.75,0,3.068227482666416,0.43323318646272513,1.9620391898684464,4.897250190398167,2.1511248366992883,0.33737061460785994,0.06428724157605824,4.1638551873761624,0.06636539174031647,0.3114338956812706,4.134814580815061,1.44120695245206
7,60.0,altitude_feedback,gain 0.25×,0.25,2.6,0.06,1.0,1.0,none,,36.87293814346215,6.8159496142770735,7.342141739063175,0.0,0.4921846601235914,0.0,0.0,3.0,3,60.0,15,3.75,0,2.991062228961823,0.4160901742241102,1.8568377487124148,4.785781995211427,2.169801432789645,0.32997682236037723,0.06268446121923109,4.336350357380637,0.05515479194800862,0.2820106664684216,4.17178330111812,1.4246835883790174
7,60.0,altitude_feedback,gain 0.25×,0.25,2.6,0.06,1.0,1.0,none,,37.28395622913681,8.566005200916882,7.272658479905525,0.0,0.48891312250090874,0.0,0.0,3.0,4,60.0,15,3.75,0,3.058257700258133,0.4259178862057938,1.942691338079764,4.875289074837657,2.1523847370124964,0.32770960260678045,0.06381785595855352,4.180630719342732,0.059804869770326875,0.30111774343157194,3.8014708311273617,1.422012753510219
7,60.0,altitude_feedback,gain 0.25×,0.25,2.6,0.06,1.0,1.0,none,,36.45221032265587,7.614591844860188,7.2852641349828895,0.0,0.49291166848418755,0.0,0.0,3.0,5,60.0,15,3.75,0,2.904229485593181,0.40060465155136893,1.7634812612715614,4.692039613522774,2.177281963279634,0.32418435212177643,0.0624217189570092,4.63370430103694,0.06530633920429904,0.3086503437550528,3.8808036451019428,1.390010992718187
7,60.0,altitude_feedback,gain 0.25×,0.25,2.6,0.06,1.0,1.0,none,,37.34952459781682,7.411394993531284,7.296184300840879,0.0,0.4881861141403126,0.0,0.0,3.0,6,60.0,15,3.75,0,3.069491942215387,0.433112051928453,1.9606075346545389,4.8906617106112895,2.144744338543453,0.33059291840140204,0.06515637336675334,4.342580092232875,0.056498397403540186,0.2971682681197388,4.097035513386014,1.428497097086861
7,60.0,altitude_feedback,gain 0.25×,0.25,2.6,0.06,1.0,1.0,none,,37.45338480805372,9.156595300591379,7.255638684007872,0.0,0.48891312250090874,0.0,0.0,3.0,7,60.0,15,3.75,0,3.0783592537110294,0.44195418648733814,1.9845359355357286,4.911602897146325,2.108215387014775,0.3420737251621079,0.06848455963844179,4.77649654918772,0.05932978830249504,0.3102436540079281,3.701137032373826,1.4134153665088793
7,60.0,altitude_feedback,gain 0.25×,0.25,2.6,0.06,1.0,1.0,none,,36.58669747046786,7.56200283673371,7.322244620329398,0.0,0.4921846601235914,0.0,0.0,3.0,8,60.0,15,3.75,0,2.928066330374397,0.4075314634606715,1.7944476896154666,4.720664074729019,2.170317951489669,0.33058383029300104,0.06372026305176655,4.744203806428032,0.06066278485949688,0.2990022401977588,3.930524520257145,1.4696048105776907
7,60.0,altitude_feedback,gain 0.25×,0.25,2.6,0.06,1.0,1.0,none,,36.72103996068963,7.269721450523341,7.346343107641135,0.0,0.4914576517629953,0.0,0.0,3.0,9,60.0,15,3.75,0,2.951407485254714,0.4108834568953406,1.8111661066083797,4.7369896393741024,2.1552157933578977,0.31582243948016697,0.06338676526046816,4.647285473614353,0.060382690645530375,0.31000871341251496,3.9854069611494864,1.4516963615488432
7,60.0,altitude_feedback,gain 0.25×,0.25,2.6,0.06,1.0,1.0,none,,38.033369441005135,7.29714593292809,7.374021864325229,0.0,0.47800799709196656,0.0,0.0,3.0,10,60.0,15,3.75,0,3.0650132871194606,0.4409823115877872,2.091175795923427,5.022517311694339,2.1127153363256777,0.2989321652192921,0.06627358933048151,3.9902737615486155,0.052649665041493834,0.32157783887484226,4.188552246593023,1.4280565011100315
7,60.0,altitude_feedback,gain 0.25×,0.25,2.6,0.06,1.0,1.0,none,,37.0869609484128,7.45665304663559,7.2266731358498255,0.0,0.48927662668120686,0.0,0.0,3.0,11,60.0,15,3.75,0,3.0547073373405134,0.43619687223449993,1.9361879354450022,4.865949775859021,2.1488341664797606,0.3555511210279702,0.06592790622121616,4.548088603371248,0.06045684138226205,0.2898650662349152,4.103410585085613,1.4522301712184607
7,60.0,altitude_feedback,gain 0.25×,0.25,2.6,0.06,1.0,1.0,none,,36.762314059413065,7.846739901144258,7.170873698418165,0.0,0.4925481643038895,0.0,0.0,3.0,12,60.0,15,3.75,0,2.9997700641319907,0.42683915197118166,1.87031795605297,4.800353181876537,2.155917376480331,0.35606306724730374,0.06527407704739453,4.6863227333968975,0.06815294053044922,0.3030470791558441,3.95091798696667,1.4170355867813895
7,60.0,altitude_feedback,gain 0.25×,0.25,2.6,0.06,1.0,1.0,none,,36.610351250086765,7.234489553467929,7.495255963825324,0.0,0.49182115594329334,0.0,0.0,3.0,13,60.0,15,3.75,0,2.9049874272365774,0.40079566170989256,1.7596387960106545,4.6811688993732306,2.152951276738639,0.3035119941385729,0.06258078308375867,4.731953134052932,0.0507171319312291,0.29305038635192376,3.9447136158850062,1.4656254103938693
7,60.0,altitude_feedback,gain 0.25×,0.25,2.6,0.06,1.0,1.0,none,,37.2262174330054,8.067592715477499,7.186030548060896,0.0,0.48854961832061067,0.0,0.0,3.0,14,60.0,15,3.75,0,3.068376909947487,0.4334279279384453,1.9602141838812261,4.894633489572012,2.142727095153372,0.3485062696656983,0.06492394526159549,4.2685017141274795,0.06515629612812958,0.30190902616838744,3.9624706899223114,1.4287107919669706
7,60.0,altitude_feedback,gain 0.25×,0.25,2.6,0.06,1.0,1.0,none,,37.11219922476342,7.159815499587357,7.1763493471750035,0.0,0.48854961832061067,0.0,0.0,3.0,15,60.0,15,3.75,0,3.067092431319064,0.44584993680717827,1.9643398707618274,4.895366699853766,2.1474281319249484,0.37220534705623465,0.06680778830559155,4.5652735761584315,0.060716124154179485,0.2821920820822479,4.228529410068424,1.4492631579477007
7,60.0,altitude_feedback,gain 0.25×,0.25,2.6,0.06,1.0,1.0,none,,36.895418993314905,7.503178323114821,7.286195658908711,0.0,0.4925481643038895,0.0,0.0,4.0,0,60.0,15,3.75,1,2.9987299696941774,0.4222069179189743,0.946615129228574,4.791501072410672,2.1541651773449737,0.33548809185240913,0.065,4.7,0.06,0.3,4.0,1.4288992721907328
7,60.0,altitude_feedback,gain 0.25×,0.25,2.6,0.06,1.0,1.0,none,,37.498297985907584,7.5523895339351315,7.417867191750652,0.0,0.49036713922210107,0.0,0.0,4.0,1,60.0,15,3.75,0,3.0637722573676105,0.4369290139821096,1.02339236955288,4.871309544454774,2.0976510775660815,0.2953406391348297,0.06577673839752203,4.570952355386659,0.0551469765634464,0.33000624819513635,3.9705706040793256,1.4182988268893335
7,60.0,altitude_feedback,gain 0.25×,0.25,2.6,0.06,1.0,1.0,none,,37.27390257839016,7.297857863478719,7.1827078481976345,0.0,0.48891312250090874,0.0,0.0,4.0,2,60.0,15,3.75,0,3.075529537302045,0.4332308594739955,1.0286781930103388,4.898767576659491,2.1502003095467432,0.3373143925439519,0.06428724157605824,4.1638551873761624,0.06636539174031647,0.3114338956812706,4.134814580815061,1.44120695245206
7,60.0,altitude_feedback,gain 0.25×,0.25,2.6,0.06,1.0,1.0,none,,36.87712938697497,6.812313494287183,7.337598814211472,0.0,0.4921846601235914,0.0,0.0,4.0,3,60.0,15,3.75,1,2.992047418646301,0.41612614490426003,0.9378226735964734,4.787612134713879,2.1671737359440333,0.3299218236137592,0.06268446121923109,4.336350357380637,0.05515479194800862,0.2820106664684216,4.17178330111812,1.4246835883790174
7,60.0,altitude_feedback,gain 0.25×,0.25,2.6,0.06,1.0,1.0,none,,37.31020384776422,8.559582302647815,7.2727292674315605,0.0,0.48891312250090874,0.0,0.0,4.0,4,60.0,15,3.75,0,3.057109779515691,0.4264711656942207,1.0137811539502362,4.877682428318699,2.1487967765803724,0.3275317035905275,0.06381785595855352,4.180630719342732,0.059804869770326875,0.30111774343157194,3.8014708311273617,1.422012753510219
7,60.0,altitude_feedback,gain 0.25×,0.25,2.6,0.06,1.0,1.0,none,,36.48788515837934,7.607965314263952,7.281110235089934,0.0,0.4921846601235914,0.0,0.0,4.0,5,60.0,15,3.75,1,2.9082874853381857,0.3970560711058426,0.853678220315663,4.6942617134748685,2.1727518333784817,0.3240985500023613,0.0624217189570092,4.63370430103694,0.06530633920429904,0.3086503437550528,3.8808036451019428,1.390010992718187
7,60.0,altitude_feedback,gain 0.25×,0.25,2.6,0.06,1.0,1.0,none,,37.36743253526901,7.407087787442018,7.295185776375018,0.0,0.48891312250090874,0.0,0.0,4.0,6,60.0,15,3.75,0,3.067794398378601,0.43330413071270657,1.0318708342084681,4.891894202970015,2.1408367958996766,0.3304976147764164,0.06515637336675334,4.342580092232875,0.056498397403540186,0.2971682681197388,4.097035513386014,1.428497097086861
7,60.0,altitude_feedback,gain 0.25×,0.25,2.6,0.06,1.0,1.0,none,,37.489476109633735,9.14950873152273,7.238788978962774,0.0,0.48891312250090874,0.0,0.0,4.0,7,60.0,15,3.75,0,3.081310112614406,0.4423282894720234,1.058201041393224,4.91393910125472,2.1031996886941275,0.34177064392694667,0.06848455963844179,4.77649654918772,0.05932978830249504,0.3102436540079281,3.701137032373826,1.4134153665088793
7,60.0,altitude_feedback,gain 0.25×,0.25,2.6,0.06,1.0,1.0,none,,36.6091538123777,7.556518647573115,7.307404972121284,0.0,0.4921846601235914,0.0,0.0,4.0,8,60.0,15,3.75,1,2.9364832519696735,0.4056195629645903,0.8855838136615867,4.724062914522039,2.166087970445253,0.33055059802708625,0.06372026305176655,4.744203806428032,0.06066278485949688,0.2990022401977588,3.930524520257145,1.4696048105776907
7,60.0,altitude_feedback,gain 0.25×,0.25,2.6,0.06,1.0,1.0,none,,36.7423599846219,7.264206056681322,7.34244014211319,0.0,0.4914576517629953,0.0,0.0,4.0,9,60.0,15,3.75,1,2.9531298729744964,0.4085653736821895,0.898571321246749,4.737968652482034,2.151142437236124,0.3156991585961169,0.06338676526046816,4.647285473614353,0.060382690645530375,0.31000871341251496,3.9854069611494864,1.4516963615488432
7,60.0,altitude_feedback,gain 0.25×,0.25,2.6,0.06,1.0,1.0,none,,38.04304575499716,7.293122899150018,7.3741570489215995,0.0,0.47800799709196656,0.0,0.0,4.0,10,60.0,15,3.75,0,3.0660668867345273,0.4412325650709832,1.1535840927830858,5.023880463318343,2.1122749726875374,0.29882536093580997,0.06627358933048151,3.9902737615486155,0.052649665041493834,0.32157783887484226,4.188552246593023,1.4280565011100315
7,60.0,altitude_feedback,gain 0.25×,0.25,2.6,0.06,1.0,1.0,none,,37.10061954892554,7.45247824851871,7.227167862648546,0.0,0.48891312250090874,0.0,0.0,4.0,11,60.0,15,3.75,0,3.054024147606594,0.4360723144263599,1.0096216638948046,4.867312129754052,2.147807752922437,0.35545264808601235,0.06592790622121616,4.548088603371248,0.06045684138226205,0.2898650662349152,4.103410585085613,1.4522301712184607
7,60.0,altitude_feedback,gain 0.25×,0.25,2.6,0.06,1.0,1.0,none,,36.78704179424255,7.840894426158532,7.172381229341437,0.0,0.4921846601235914,0.0,0.0,4.0,12,60.0,15,3.75,1,3.0023295587292855,0.4264091176991918,0.9484576363453345,4.80154814246313,2.153037165416658,0.35588978914576047,0.06527407704739453,4.6863227333968975,0.06815294053044922,0.3030470791558441,3.95091798696667,1.4170355867813895
7,60.0,altitude_feedback,gain 0.25×,0.25,2.6,0.06,1.0,1.0,none,,36.64033815746973,7.229317923409784,7.4862855167376345,0.0,0.49291166848418755,0.0,0.0,4.0,13,60.0,15,3.75,1,2.9072020620586305,0.3941078663647685,0.8597433499888755,4.685877873598083,2.149830567100877,0.3035416779676242,0.06258078308375867,4.731953134052932,0.0507171319312291,0.29305038635192376,3.9447136158850062,1.4656254103938693
7,60.0,altitude_feedback,gain 0.25×,0.25,2.6,0.06,1.0,1.0,none,,37.24492247816277,8.061748297753507,7.178622147739475,0.0,0.48782260996001453,0.0,0.0,4.0,14,60.0,15,3.75,0,3.069345284626262,0.4333662468026898,1.0273931839321873,4.895713878244225,2.1408376342335402,0.34832892794242815,0.06492394526159549,4.2685017141274795,0.06515629612812958,0.30190902616838744,3.9624706899223114,1.4287107919669706
7,60.0,altitude_feedback,gain 0.25×,0.25,2.6,0.06,1.0,1.0,none,,37.125623161875794,7.156440684197478,7.177264366255359,0.0,0.4881861141403126,0.0,0.0,4.0,15,60.0,15,3.75,0,3.068716599659296,0.4456538026239395,1.0344869394451814,4.896477253117206,2.14539459606236,0.3721372436808751,0.06680778830559155,4.5652735761584315,0.060716124154179485,0.2821920820822479,4.228529410068424,1.4492631579477007
7,60.0,altitude_feedback,gain 0.25×,0.25,2.6,0.06,1.0,1.0,none,,39.192347172446105,7.504722073281421,5.41018316477587,0.0,0.48237004725554344,0.0,0.0,5.0,0,60.0,16,4.0,1,3.42235344338657,0.37954595266906344,0.6491661023572777,5.331416880698015,2.1335927134974626,0.3472362492473001,0.065,4.7,0.06,0.3,4.0,1.4288992721907328
7,60.0,altitude_feedback,gain 0.25×,0.25,2.6,0.06,1.0,1.0,none,,39.177301178813785,7.553478057932377,5.3158409910478985,0.0,0.4914576517629953,0.0,0.0,5.0,1,60.0,16,4.0,1,3.3961176703900624,0.37682581978801355,0.6603301908632081,5.352640865316396,2.2098902945766725,0.3019381972806387,0.06577673839752203,4.570952355386659,0.0551469765634464,0.33000624819513635,3.9705706040793256,1.4182988268893335
7,60.0,altitude_feedback,gain 0.25×,0.25,2.6,0.06,1.0,1.0,none,,38.90303017902993,7.29817834713393,5.4762101850088625,0.0,0.4841875681570338,0.0,0.0,5.0,2,60.0,16,4.0,1,3.3475674065433427,0.3528070052311676,0.6024944614103203,5.306630263594861,2.21335420289588,0.34994738171246037,0.06428724157605824,4.1638551873761624,0.06636539174031647,0.3114338956812706,4.134814580815061,1.44120695245206
7,60.0,altitude_feedback,gain 0.25×,0.25,2.6,0.06,1.0,1.0,none,,39.1722542842058,6.8140499696905845,5.453108307391244,0.0,0.48237004725554344,0.0,0.0,5.0,3,60.0,16,4.0,1,3.4211322161911353,0.36945396459765173,0.6386995399701265,5.3254870998296635,2.1608856163998365,0.3409227153446492,0.06268446121923109,4.336350357380637,0.05515479194800862,0.2820106664684216,4.17178330111812,1.4246835883790174
7,60.0,altitude_feedback,gain 0.25×,0.25,2.6,0.06,1.0,1.0,none,,39.015304224964154,8.56096879558944,5.473920096602175,0.0,0.4841875681570338,0.0,0.0,5.0,4,60.0,16,4.0,1,3.369165061130919,0.35854970016371784,0.6182748538881704,5.317071425113733,2.208117492410569,0.3382839388839011,0.06381785595855352,4.180630719342732,0.059804869770326875,0.30111774343157194,3.8014708311273617,1.422012753510219
7,60.0,altitude_feedback,gain 0.25×,0.25,2.6,0.06,1.0,1.0,none,,39.17006810967238,7.609063293316722,5.33098592424932,0.0,0.48091603053435117,0.0,0.0,5.0,5,60.0,16,4.0,1,3.4399183070585626,0.3841829690206247,0.6393457315821544,5.319910619995684,2.1135108991044818,0.3426472483148127,0.0624217189570092,4.63370430103694,0.06530633920429904,0.3086503437550528,3.8808036451019428,1.390010992718187
7,60.0,altitude_feedback,gain 0.25×,0.25,2.6,0.06,1.0,1.0,none,,39.06541756048554,7.408342137445668,5.4719981337796915,0.0,0.4860050890585242,0.0,0.0,5.0,6,60.0,16,4.0,1,3.36287339451813,0.36076588475191157,0.632639590641684,5.3273400590915685,2.2069642166662136,0.33856204025004394,0.06515637336675334,4.342580092232875,0.056498397403540186,0.2971682681197388,4.097035513386014,1.428497097086861
7,60.0,altitude_feedback,gain 0.25×,0.25,2.6,0.06,1.0,1.0,none,,39.136667753527504,9.151056352020184,5.631325905455493,0.0,0.48782260996001453,0.0,0.0,5.0,7,60.0,16,4.0,1,3.3656808843652746,0.374704634023912,0.6497593803334664,5.3364370675940185,2.1721751702426273,0.3488650249260077,0.06848455963844179,4.77649654918772,0.05932978830249504,0.3102436540079281,3.701137032373826,1.4134153665088793
7,60.0,altitude_feedback,gain 0.25×,0.25,2.6,0.06,1.0,1.0,none,,39.24129786356279,7.558044185855755,5.367098925866134,0.0,0.48237004725554344,0.0,0.0,5.0,8,60.0,16,4.0,1,3.452161646312993,0.3865206925712912,0.6538782857949583,5.332611836074353,2.111736794724405,0.3449331740112971,0.06372026305176655,4.744203806428032,0.06066278485949688,0.2990022401977588,3.930524520257145,1.4696048105776907
7,60.0,altitude_feedback,gain 0.25×,0.25,2.6,0.06,1.0,1.0,none,,39.21060705264819,7.265276754656896,5.3548382945535655,0.0,0.4827335514358415,0.0,0.0,5.0,9,60.0,16,4.0,1,3.451416242970458,0.3824775735047814,0.6520036045205866,5.335726810704827,2.1368064289838373,0.32949875146272556,0.06338676526046816,4.647285473614353,0.060382690645530375,0.31000871341251496,3.9854069611494864,1.4516963615488432
7,60.0,altitude_feedback,gain 0.25×,0.25,2.6,0.06,1.0,1.0,none,,38.94489355922362,7.293816563211349,5.640288940260336,0.0,0.490003635041803,0.0,0.0,5.0,10,60.0,16,4.0,1,3.322783585460547,0.3444123914133126,0.6240384922898646,5.3340529222793425,2.2966003625850493,0.3035050540118269,0.06627358933048151,3.9902737615486155,0.052649665041493834,0.32157783887484226,4.188552246593023,1.4280565011100315
7,60.0,altitude_feedback,gain 0.25×,0.25,2.6,0.06,1.0,1.0,none,,39.11053609409906,7.454296001271048,5.564428522276838,0.0,0.48237004725554344,0.0,0.0,5.0,11,60.0,16,4.0,1,3.384794439331898,0.3717047012649362,0.6341855651376508,5.321553286470852,2.155590410248259,0.365808054181585,0.06592790622121616,4.548088603371248,0.06045684138226205,0.2898650662349152,4.103410585085613,1.4522301712184607
7,60.0,altitude_feedback,gain 0.25×,0.25,2.6,0.06,1.0,1.0,none,,39.0917353939445,7.842310481516203,5.467894025121305,0.0,0.4820065430752454,0.0,0.0,5.0,12,60.0,16,4.0,1,3.3889071760597678,0.3786996066262004,0.6275881971321225,5.3112008918487055,2.118035709718342,0.3718169607230002,0.06527407704739453,4.6863227333968975,0.06815294053044922,0.3030470791558441,3.95091798696667,1.4170355867813895
7,60.0,altitude_feedback,gain 0.25×,0.25,2.6,0.06,1.0,1.0,none,,39.40596261632879,7.230999384383185,5.364859054640493,0.0,0.4856415848782261,0.0,0.0,5.0,13,60.0,16,4.0,1,3.493811623381631,0.39699670365875783,0.6847008738774946,5.357604456139813,2.1169278181829068,0.3124221130436937,0.06258078308375867,4.731953134052932,0.0507171319312291,0.29305038635192376,3.9447136158850062,1.4656254103938693
7,60.0,altitude_feedback,gain 0.25×,0.25,2.6,0.06,1.0,1.0,none,,38.95784305320197,8.06275067205262,5.5848969302876155,0.0,0.4827335514358415,0.0,0.0,5.0,14,60.0,16,4.0,1,3.354863446256695,0.3586111950937851,0.6091046608966783,5.307123433920673,2.192113974218107,0.36056566008992214,0.06492394526159549,4.2685017141274795,0.06515629612812958,0.30190902616838744,3.9624706899223114,1.4287107919669706
7,60.0,altitude_feedback,gain 0.25×,0.25,2.6,0.06,1.0,1.0,none,,39.09193168232542,7.15837336686607,5.7749125821049185,0.0,0.4841875681570338,0.0,0.0,5.0,15,60.0,16,4.0,1,3.353790359735293,0.37469764203927675,0.6313672754759778,5.316871347053366,2.153600682328997,0.38176261500880393,0.06680778830559155,4.5652735761584315,0.060716124154179485,0.2821920820822479,4.228529410068424,1.4492631579477007
7,60.0,altitude_feedback,gain 0.25×,0.25,2.6,0.06,1.0,1.0,none,,41.454068421447936,7.504722073281421,4.428819695971547,0.0,0.5278080697928026,0.0,0.0,6.0,0,60.0,17,4.25,1,4.3486924283207,0.4443295597982753,0.6008645088159039,6.152972443730941,2.2041680105323866,0.3834470965194356,0.065,4.7,0.06,0.3,4.0,1.4288992721907328
7,60.0,altitude_feedback,gain 0.25×,0.25,2.6,0.06,1.0,1.0,none,,41.53914542322449,7.553478057932377,4.379406288654693,0.0,0.5259905488913122,0.0,0.0,6.0,1,60.0,17,4.25,1,4.3461976829585165,0.4530161503322966,0.6052387733636341,6.18389283797324,2.2116193936245963,0.3309576782766715,0.06577673839752203,4.570952355386659,0.0551469765634464,0.33000624819513635,3.9705706040793256,1.4182988268893335
7,60.0,altitude_feedback,gain 0.25×,0.25,2.6,0.06,1.0,1.0,none,,41.38664305778367,7.29817834713393,4.499398502919426,0.0,0.5288985823336968,0.0,0.0,6.0,2,60.0,17,4.25,1,4.343064640417765,0.4282795326490164,0.5733747422678525,6.13976888304392,2.2124416301503302,0.392460669501824,0.06428724157605824,4.1638551873761624,0.06636539174031647,0.3114338956812706,4.134814580815061,1.44120695245206
7,60.0,altitude_feedback,gain 0.25×,0.25,2.6,0.06,1.0,1.0,none,,41.332866977647704,6.8140499696905845,4.486907023972062,0.0,0.5285350781533987,0.0,0.0,6.0,3,60.0,17,4.25,1,4.33904886954882,0.4257459244936052,0.589599995021757,6.130516258157133,2.2608587006906484,0.3751910284501566,0.06268446121923109,4.336350357380637,0.05515479194800862,0.2820106664684216,4.17178330111812,1.4246835883790174
7,60.0,altitude_feedback,gain 0.25×,0.25,2.6,0.06,1.0,1.0,none,,41.404951159103035,8.56096879558944,4.502096970568979,0.0,0.5278080697928026,0.0,0.0,6.0,4,60.0,17,4.25,1,4.336242963503421,0.4392714302552992,0.5860665101195275,6.1372385919048,2.225090292337639,0.3753058345662087,0.06381785595855352,4.180630719342732,0.059804869770326875,0.30111774343157194,3.8014708311273617,1.422012753510219
7,60.0,altitude_feedback,gain 0.25×,0.25,2.6,0.06,1.0,1.0,none,,41.265292502107194,7.609063293316722,4.3079063847937675,0.0,0.5296255906942929,0.0,0.0,6.0,5,60.0,17,4.25,1,4.339945554888622,0.43357280167404005,0.5839364188748795,6.1153215664956635,2.2623054078096145,0.3834769767365083,0.0624217189570092,4.63370430103694,0.06530633920429904,0.3086503437550528,3.8808036451019428,1.390010992718187
7,60.0,altitude_feedback,gain 0.25×,0.25,2.6,0.06,1.0,1.0,none,,41.473255978969775,7.408342137445668,4.514176556883835,0.0,0.5270810614322065,0.0,0.0,6.0,6,60.0,17,4.25,1,4.340439313771328,0.4392549891485767,0.5962822273258407,6.1611138583146765,2.21036171804038,0.3721501486836058,0.06515637336675334,4.342580092232875,0.056498397403540186,0.2971682681197388,4.097035513386014,1.428497097086861
